,gid_county,name_county,lat_county,lon_county,state,cat_code,gid_seat,name_seat,lat_seat,lon_seat,fips_code,name_visit,lat_visit,lon_visit
0,4047434,Russell County,32.28838,-85.18496,AL,US.AL.113,4082866.0,Phenix City,32.47098,-85.00076999999999,1113,Phenix City,32.47098,-85.00076999999999
1,4048080,Long County,31.75258,-81.74577,GA,US.GA.183,4207083.0,Ludowici,31.707990000000002,-81.74234,13183,Ludowici,31.707990000000002,-81.74234
2,4048522,Boone County,38.96986,-84.72787,KY,US.KY.015,4286281.0,Burlington,39.02756,-84.72411,21015,Burlington,39.02756,-84.72411
3,4048572,Rowan County,38.196259999999995,-83.42108,KY,US.KY.205,4301307.0,Morehead,38.18397,-83.43268,21205,Morehead,38.18397,-83.43268
4,4049189,Bibb County,32.99864,-87.12644,AL,US.AL.007,4054566.0,Centreville,32.9462,-87.11669,1007,Centreville,32.9462,-87.11669
5,4050506,Campbell County,36.40351,-84.14938000000001,TN,US.TN.013,4632591.0,Jacksboro,36.33008,-84.18382,47013,Jacksboro,36.33008,-84.18382
6,4050633,Blount County,33.98087,-86.56737,AL,US.AL.009,4081671.0,Oneonta,33.94815,-86.47276,1009,Oneonta,33.94815,-86.47276
7,4052497,Bullock County,32.10055,-85.7157,AL,US.AL.011,4094975.0,Union Springs,32.14432,-85.71495,1011,Union Springs,32.14432,-85.71495
8,4052744,Butler County,31.75243,-86.68029,AL,US.AL.013,4065302.0,Greenville,31.8296,-86.61775,1013,Greenville,31.8296,-86.61775
9,4053062,Calhoun County,33.77143,-85.82603,AL,US.AL.015,4830198.0,Anniston,33.65983,-85.83163,1015,Anniston,33.65983,-85.83163
10,4054621,Chambers County,32.91437,-85.39204000000001,AL,US.AL.017,4071267.0,Lafayette,32.89985,-85.40106,1017,Lafayette,32.89985,-85.40106
11,4054880,Cherokee County,34.175959999999996,-85.60379,AL,US.AL.019,4054555.0,Centre,34.15204,-85.67885,1019,Centre,34.15204,-85.67885
12,4055067,Chilton County,32.84785,-86.71880999999999,AL,US.AL.021,4055577.0,Clanton,32.83874,-86.62943,1021,Clanton,32.83874,-86.62943
13,4055170,Choctaw County,32.01961,-88.2632,AL,US.AL.023,4052726.0,Butler,32.08959,-88.22197,1023,Butler,32.08959,-88.22197
14,4055624,Clarke County,31.67666,-87.83081,AL,US.AL.025,4065475.0,Grove Hill,31.70877,-87.77722,1025,Grove Hill,31.70877,-87.77722
15,4055660,Clay County,33.269090000000006,-85.86055,AL,US.AL.027,4830687.0,Ashland,33.27373,-85.83606999999999,1027,Ashland,33.27373,-85.83606999999999
16,4055785,Cleburne County,33.67456,-85.51876999999999,AL,US.AL.029,4066793.0,Heflin,33.648990000000005,-85.58746,1029,Heflin,33.648990000000005,-85.58746
17,4056099,Coffee County,31.40263,-85.98821,AL,US.AL.031,4828081.0,Elba,31.414609999999996,-86.06772,1031,Elba,31.414609999999996,-86.06772
18,4056165,Colbert County,34.70043,-87.80498,AL,US.AL.033,4094484.0,Tuscumbia,34.7312,-87.70253000000001,1033,Tuscumbia,34.7312,-87.70253000000001
19,4056592,Conecuh County,31.429270000000002,-86.99368,AL,US.AL.035,4061064.0,Evergreen,31.4335,-86.95692,1035,Evergreen,31.4335,-86.95692
20,4056809,Coosa County,32.93623,-86.24766,AL,US.AL.037,4086637.0,Rockford,32.88957,-86.21969,1037,Rockford,32.88957,-86.21969
21,4057296,Covington County,31.248490000000004,-86.45125,AL,US.AL.039,4830099.0,Andalusia,31.30808,-86.48243000000001,1039,Andalusia,31.30808,-86.48243000000001
22,4057517,Crenshaw County,31.73149,-86.31355,AL,US.AL.041,4073985.0,Luverne,31.71655,-86.26385,1041,Luverne,31.71655,-86.26385
23,4057837,Cullman County,34.13194,-86.86762,AL,US.AL.043,4057835.0,Cullman,34.174820000000004,-86.84361,1043,Cullman,34.174820000000004,-86.84361
24,4058052,Dale County,31.431820000000002,-85.61103,AL,US.AL.045,4081936.0,Ozark,31.459059999999997,-85.64049,1045,Ozark,31.459059999999997,-85.64049
25,4058076,Dallas County,32.32597,-87.10648,AL,US.AL.047,4089114.0,Selma,32.40736,-87.0211,1047,Selma,32.40736,-87.0211
26,4058479,DeKalb County,34.45977,-85.80414,AL,US.AL.049,4062861.0,Fort Payne,34.44425,-85.71969,1049,Fort Payne,34.44425,-85.71969
27,4060563,Elmore County,32.59665,-86.14915,AL,US.AL.051,4097257.0,Wetumpka,32.54374,-86.21191,1051,Wetumpka,32.54374,-86.21191
28,4060870,Escambia County,31.12612,-87.16162,AL,US.AL.053,4051714.0,Brewton,31.105179999999997,-87.07219,1053,Brewton,31.105179999999997,-87.07219
29,4060938,Etowah County,34.04525,-86.03475999999999,AL,US.AL.055,4063619.0,Gadsden,34.014340000000004,-86.00639,1055,Gadsden,34.014340000000004,-86.00639
30,4061590,Fayette County,33.72121,-87.73886,AL,US.AL.057,4061586.0,Fayette,33.68455,-87.83085,1057,Fayette,33.68455,-87.83085
31,4063130,Franklin County,34.44167,-87.84380999999999,AL,US.AL.059,4087313.0,Russellville,34.507870000000004,-87.72864,1059,Russellville,34.507870000000004,-87.72864
32,4063931,Geneva County,31.09502,-85.83898,AL,US.AL.061,4063926.0,Geneva,31.03296,-85.86381999999999,1061,Geneva,31.03296,-85.86381999999999
33,4065243,Greene County,32.85314,-87.95223,AL,US.AL.063,4060991.0,Eutaw,32.84059,-87.88762,1063,Eutaw,32.84059,-87.88762
34,4065796,Hale County,32.76266,-87.62912,AL,US.AL.065,4065282.0,Greensboro,32.70415,-87.5955,1065,Greensboro,32.70415,-87.5955
35,4066911,Henry County,31.51469,-85.24141,AL,US.AL.067,4829449.0,Abbeville,31.57184,-85.25049,1067,Abbeville,31.57184,-85.25049
36,4068296,Houston County,31.15318,-85.30252,AL,US.AL.069,4059102.0,Dothan,31.223229999999997,-85.39049,1069,Dothan,31.223229999999997,-85.39049
37,4069472,Jackson County,34.77941,-85.9993,AL,US.AL.071,4088916.0,Scottsboro,34.672309999999996,-86.03415,1071,Scottsboro,34.672309999999996,-86.03415
38,4069696,Jefferson County,33.55431,-86.89649,AL,US.AL.073,4049979.0,Birmingham,33.52066,-86.80249,1073,Birmingham,33.52066,-86.80249
39,4071676,Lamar County,33.77921,-88.0969,AL,US.AL.075,4095392.0,Vernon,33.75705,-88.10892,1075,Vernon,33.75705,-88.10892
40,4071898,Lauderdale County,34.90137,-87.654,AL,US.AL.077,4062577.0,Florence,34.79981,-87.67725,1077,Florence,34.79981,-87.67725
41,4071959,Lawrence County,34.52165,-87.31104,AL,US.AL.079,4077329.0,Moulton,34.48121,-87.29335,1079,Moulton,34.48121,-87.29335
42,4072098,Lee County,32.60114,-85.35556,AL,US.AL.081,4081644.0,Opelika,32.64541,-85.37828,1081,Opelika,32.64541,-85.37828
43,4072707,Limestone County,34.81008,-86.98137,AL,US.AL.083,4830668.0,Athens,34.80243,-86.97219,1083,Athens,34.80243,-86.97219
44,4073885,Lowndes County,32.15475,-86.65011,AL,US.AL.085,4066661.0,Hayneville,32.18403,-86.58025,1085,Hayneville,32.18403,-86.58025
45,4074246,Macon County,32.38597,-85.69266999999999,AL,US.AL.087,4094490.0,Tuskegee,32.42415,-85.69096,1087,Tuskegee,32.42415,-85.69096
46,4074277,Madison County,34.763090000000005,-86.55020999999999,AL,US.AL.089,4068590.0,Huntsville,34.7304,-86.58594000000001,1089,Huntsville,34.7304,-86.58594000000001
47,4074590,Marengo County,32.247609999999995,-87.78952,AL,US.AL.091,4072752.0,Linden,32.30625,-87.79807,1091,Linden,32.30625,-87.79807
48,4074636,Marion County,34.13655,-87.88714,AL,US.AL.093,4065965.0,Hamilton,34.14232,-87.98864,1093,Hamilton,34.14232,-87.98864
49,4074736,Marshall County,34.36696,-86.30664,AL,US.AL.095,4065649.0,Guntersville,34.35823,-86.29446,1095,Guntersville,34.35823,-86.29446
50,4076607,Mobile County,30.68515,-88.19753,AL,US.AL.097,4076598.0,Mobile,30.694359999999996,-88.04305,1097,Mobile,30.694359999999996,-88.04305
51,4076706,Monroe County,31.570840000000004,-87.36543,AL,US.AL.099,4076725.0,Monroeville,31.52794,-87.32471,1099,Monroeville,31.52794,-87.32471
52,4076795,Montgomery County,32.220259999999996,-86.20761,AL,US.AL.101,,,,,1101,Montgomery County,32.220259999999996,-86.20761
53,4077029,Morgan County,34.45347,-86.85293,AL,US.AL.103,4058553.0,Decatur,34.60593,-86.98334,1103,Decatur,34.60593,-86.98334
54,4082741,Perry County,32.63847,-87.2944,AL,US.AL.105,4074673.0,Marion,32.63235,-87.31917,1105,Marion,32.63235,-87.31917
55,4082974,Pickens County,33.280879999999996,-88.08869,AL,US.AL.107,4053823.0,Carrollton,33.26169,-88.09503000000001,1107,Carrollton,33.26169,-88.09503000000001
56,4083063,Pike County,31.80272,-85.94091999999999,AL,US.AL.109,4094163.0,Troy,31.808770000000003,-85.96995,1109,Troy,31.808770000000003,-85.96995
57,4085418,Randolph County,33.29379,-85.45907,AL,US.AL.111,4096712.0,Wedowee,33.309,-85.48467,1111,Wedowee,33.309,-85.48467
58,4087481,Saint Clair County,33.7157,-86.31469,AL,US.AL.115,,,,,1115,Saint Clair County,33.7157,-86.31469
59,4089551,Shelby County,33.26428,-86.66065,AL,US.AL.117,4056427.0,Columbiana,33.17817,-86.60721,1117,Columbiana,33.17817,-86.60721
60,4092386,Sumter County,32.59101,-88.19879,AL,US.AL.119,4073383.0,Livingston,32.5843,-88.18725,1119,Livingston,32.5843,-88.18725
61,4092795,Talladega County,33.38006,-86.16591,AL,US.AL.121,4092788.0,Talladega,33.43594,-86.1058,1121,Talladega,33.43594,-86.1058
62,4092827,Tallapoosa County,32.8624,-85.7975,AL,US.AL.123,4058027.0,Dadeville,32.83124,-85.76357,1123,Dadeville,32.83124,-85.76357
63,4094463,Tuscaloosa County,33.28955,-87.52503,AL,US.AL.125,4094455.0,Tuscaloosa,33.20984,-87.56917,1125,Tuscaloosa,33.20984,-87.56917
64,4096107,Walker County,33.803329999999995,-87.29736,AL,US.AL.127,4069659.0,Jasper,33.83122,-87.27750999999999,1127,Jasper,33.83122,-87.27750999999999
65,4096449,Washington County,31.4076,-88.20788,AL,US.AL.129,4054818.0,Chatom,31.46517,-88.25446,1129,Chatom,31.46517,-88.25446
66,4097694,Wilcox County,31.989240000000002,-87.3082,AL,US.AL.131,4053200.0,Camden,31.99098,-87.29055,1131,Camden,31.99098,-87.29055
67,4098200,Winston County,34.149229999999996,-87.37368000000001,AL,US.AL.133,4059162.0,Double Springs,34.146370000000005,-87.40247,1133,Double Springs,34.146370000000005,-87.40247
68,4099679,Arkansas County,34.29081,-91.37491,AR,US.AR.001,,,,,5001,Arkansas County,34.29081,-91.37491
69,4099869,Ashley County,33.19122,-91.76845,AR,US.AR.003,4113607.0,Hamburg,33.22818,-91.79763,5003,Hamburg,33.22818,-91.79763
70,4100581,Baxter County,36.28719,-92.33697,AR,US.AR.005,4123037.0,Mountain Home,36.33534,-92.38516,5005,Mountain Home,36.33534,-92.38516
71,4101244,Benton County,36.33872,-94.25619,AR,US.AR.007,4101260.0,Bentonville,36.37285,-94.20881999999999,5007,Bentonville,36.37285,-94.20881999999999
72,4102608,Boone County,36.30859,-93.0915,AR,US.AR.009,4113956.0,Harrison,36.22979,-93.10768,5009,Harrison,36.22979,-93.10768
73,4102799,Bradley County,33.46642,-92.1624,AR,US.AR.011,4135349.0,Warren,33.61261,-92.06458,5011,Warren,33.61261,-92.06458
74,4104063,Calhoun County,33.55803,-92.50304,AR,US.AR.013,4113647.0,Hampton,33.537890000000004,-92.46988,5013,Hampton,33.537890000000004,-92.46988
75,4104658,Carroll County,36.34102,-93.53818000000001,AR,US.AR.015,,,,,5015,Carroll County,36.34102,-93.53818000000001
76,4105506,Chicot County,33.26725,-91.29397,AR,US.AR.017,4118121.0,Lake Village,33.32873,-91.28178,5017,Lake Village,33.32873,-91.28178
77,4105838,Clark County,34.050959999999996,-93.17636999999999,AR,US.AR.019,4099647.0,Arkadelphia,34.12093,-93.05378,5019,Arkadelphia,34.12093,-93.05378
78,4105899,Clay County,36.368390000000005,-90.41738000000001,AR,US.AR.021,,,,,5021,Clay County,36.368390000000005,-90.41738000000001
79,4106009,Cleburne County,35.538109999999996,-92.02674,AR,US.AR.023,4114225.0,Heber Springs,35.49147,-92.03126,5023,Heber Springs,35.49147,-92.03126
80,4106032,Cleveland County,33.89836,-92.18514,AR,US.AR.025,4128469.0,Rison,33.95843,-92.19015,5025,Rison,33.95843,-92.19015
81,4106339,Columbia County,33.214290000000005,-93.22731,AR,US.AR.027,4120323.0,Magnolia,33.267070000000004,-93.23933000000001,5027,Magnolia,33.267070000000004,-93.23933000000001
82,4106460,Conway County,35.262209999999996,-92.70132,AR,US.AR.029,4122218.0,Morrilton,35.15092,-92.74405,5029,Morrilton,35.15092,-92.74405
83,4106979,Craighead County,35.83079,-90.63285,AR,US.AR.031,,,,,5031,Craighead County,35.83079,-90.63285
84,4107027,Crawford County,35.58883,-94.24311999999999,AR,US.AR.033,4134716.0,Van Buren,35.43676,-94.34827,5033,Van Buren,35.43676,-94.34827
85,4107079,Crittenden County,35.20794,-90.30886,AR,US.AR.035,4120524.0,Marion,35.214529999999996,-90.19648000000001,5035,Marion,35.214529999999996,-90.19648000000001
86,4107139,Cross County,35.29573,-90.77123,AR,US.AR.037,4137215.0,Wynne,35.22453,-90.78678000000001,5037,Wynne,35.22453,-90.78678000000001
87,4107572,Dallas County,33.96983,-92.65444000000001,AR,US.AR.039,4111319.0,Fordyce,33.81372,-92.41293,5039,Fordyce,33.81372,-92.41293
88,4108100,Desha County,33.83333,-91.25395,AR,US.AR.041,4099673.0,Arkansas City,33.60872,-91.20678000000001,5041,Arkansas City,33.60872,-91.20678000000001
89,4108996,Drew County,33.58945,-91.72001999999999,AR,US.AR.043,4122015.0,Monticello,33.629,-91.79096,5043,Monticello,33.629,-91.79096
90,4110465,Faulkner County,35.14698,-92.33204,AR,US.AR.045,4106458.0,Conway,35.0887,-92.4421,5045,Conway,35.0887,-92.4421
91,4111593,Franklin County,35.51235,-93.89062,AR,US.AR.047,,,,,5047,Franklin County,35.51235,-93.89062
92,4111857,Fulton County,36.38167,-91.81824,AR,US.AR.049,4129962.0,Salem,36.371179999999995,-91.82265,5049,Salem,36.371179999999995,-91.82265
93,4112045,Garland County,34.57669,-93.15043,AR,US.AR.051,4115412.0,Hot Springs,34.5037,-93.05518000000001,5051,Hot Springs,34.5037,-93.05518000000001
94,4112780,Grant County,34.29002,-92.42358,AR,US.AR.053,4130821.0,Sheridan,34.30704,-92.40127,5053,Sheridan,34.30704,-92.40127
95,4113088,Greene County,36.11769,-90.55908000000001,AR,US.AR.055,4125388.0,Paragould,36.0584,-90.49733,5055,Paragould,36.0584,-90.49733
96,4114303,Hempstead County,33.7353,-93.66844,AR,US.AR.057,4115181.0,Hope,33.66706,-93.59156999999999,5057,Hope,33.66706,-93.59156999999999
97,4115406,Hot Spring County,34.31763,-92.94601,AR,US.AR.059,4120388.0,Malvern,34.36231,-92.81295,5059,Malvern,34.36231,-92.81295
98,4115463,Howard County,34.08874,-93.99349000000001,AR,US.AR.061,4123271.0,Nashville,33.94567,-93.84713,5061,Nashville,33.94567,-93.84713
99,4115832,Independence County,35.74158,-91.56971999999999,AR,US.AR.063,4100525.0,Batesville,35.7698,-91.64097,5063,Batesville,35.7698,-91.64097
100,4116178,Izard County,36.09487,-91.91342,AR,US.AR.065,4121256.0,Melbourne,36.059509999999996,-91.90848000000001,5065,Melbourne,36.059509999999996,-91.90848000000001
101,4116263,Jackson County,35.59923,-91.21457,AR,US.AR.067,4123830.0,Newport,35.6048,-91.2818,5067,Newport,35.6048,-91.2818
102,4116433,Jefferson County,34.26879,-91.93151,AR,US.AR.069,4126226.0,Pine Bluff,34.228429999999996,-92.0032,5069,Pine Bluff,34.228429999999996,-92.0032
103,4116689,Johnson County,35.57005,-93.45991,AR,US.AR.071,4105879.0,Clarksville,35.471470000000004,-93.46656999999999,5071,Clarksville,35.471470000000004,-93.46656999999999
104,4117774,Lafayette County,33.24098,-93.60704,AR,US.AR.073,4118755.0,Lewisville,33.35846,-93.57768,5073,Lewisville,33.35846,-93.57768
105,4118467,Lawrence County,36.04125,-91.10708000000001,AR,US.AR.075,4135205.0,Walnut Ridge,36.0684,-90.95595,5075,Walnut Ridge,36.0684,-90.95595
106,4118578,Lee County,34.78062,-90.78206999999999,AR,US.AR.077,4120508.0,Marianna,34.773709999999994,-90.75761,5077,Marianna,34.773709999999994,-90.75761
107,4118984,Lincoln County,33.95747,-91.73331999999999,AR,US.AR.079,4132227.0,Star City,33.94288,-91.84347,5079,Star City,33.94288,-91.84347
108,4119374,Little River County,33.700540000000004,-94.23434,AR,US.AR.081,4099852.0,Ashdown,33.67429,-94.13131,5081,Ashdown,33.67429,-94.13131
109,4119581,Logan County,35.215270000000004,-93.71631,AR,US.AR.083,,,,,5083,Logan County,35.215270000000004,-93.71631
110,4119825,Lonoke County,34.75427,-91.88866999999999,AR,US.AR.085,4119817.0,Lonoke,34.78398,-91.89986,5085,Lonoke,34.78398,-91.89986
111,4120275,Madison County,36.01096,-93.72456,AR,US.AR.087,4115658.0,Huntsville,36.08619,-93.7413,5087,Huntsville,36.08619,-93.7413
112,4120525,Marion County,36.26835,-92.68422,AR,US.AR.089,4137291.0,Yellville,36.22618,-92.68489,5089,Yellville,36.22618,-92.68489
113,4121680,Miller County,33.31215,-93.89156,AR,US.AR.091,4133367.0,Texarkana,33.441790000000005,-94.03769,5091,Texarkana,33.441790000000005,-94.03769
114,4121839,Mississippi County,35.7639,-90.05417,AR,US.AR.093,,,,,5093,Mississippi County,35.7639,-90.05417
115,4121968,Monroe County,34.67784,-91.20389,AR,US.AR.095,4105824.0,Clarendon,34.69315,-91.31374,5095,Clarendon,34.69315,-91.31374
116,4121992,Montgomery County,34.538790000000006,-93.65953,AR,US.AR.097,4122466.0,Mount Ida,34.55676,-93.63408000000001,5097,Mount Ida,34.55676,-93.63408000000001
117,4123415,Nevada County,33.66397,-93.30714,AR,US.AR.099,4127433.0,Prescott,33.802609999999994,-93.38101,5099,Prescott,33.802609999999994,-93.38101
118,4123857,Newton County,35.91997,-93.21786999999999,AR,US.AR.101,4116400.0,Jasper,36.00813,-93.18656999999999,5101,Jasper,36.00813,-93.18656999999999
119,4125059,Ouachita County,33.59336,-92.88193000000001,AR,US.AR.103,4104182.0,Camden,33.584559999999996,-92.83433000000001,5103,Camden,33.584559999999996,-92.83433000000001
120,4125858,Perry County,34.94737,-92.93146999999999,AR,US.AR.105,4125875.0,Perryville,35.00481,-92.80266999999999,5105,Perryville,35.00481,-92.80266999999999
121,4126012,Phillips County,34.428290000000004,-90.84801999999999,AR,US.AR.107,4114272.0,Helena,34.52955,-90.59177,5107,Helena,34.52955,-90.59177
122,4126123,Pike County,34.1635,-93.65634,AR,US.AR.109,4123162.0,Murfreesboro,34.062329999999996,-93.6899,5109,Murfreesboro,34.062329999999996,-93.6899
123,4126942,Poinsett County,35.574040000000004,-90.66293,AR,US.AR.111,4113951.0,Harrisburg,35.56425,-90.71678,5111,Harrisburg,35.56425,-90.71678
124,4127017,Polk County,34.48584,-94.22807,AR,US.AR.113,4121297.0,Mena,34.586220000000004,-94.23966,5113,Mena,34.586220000000004,-94.23966
125,4127100,Pope County,35.44763,-93.03416,AR,US.AR.115,4129397.0,Russellville,35.278420000000004,-93.13379,5115,Russellville,35.278420000000004,-93.13379
126,4127330,Prairie County,34.82979,-91.55277,AR,US.AR.117,,,,,5117,Prairie County,34.82979,-91.55277
127,4127619,Pulaski County,34.76993,-92.3118,AR,US.AR.119,,,,,5119,Pulaski County,34.76993,-92.3118
128,4127846,Randolph County,36.34148,-91.02772,AR,US.AR.121,4126923.0,Pocahontas,36.26146,-90.97123,5121,Pocahontas,36.26146,-90.97123
129,4129533,Saint Francis County,35.022,-90.74778,AR,US.AR.123,4111382.0,Forrest City,35.00815,-90.78983000000001,5123,Forrest City,35.00815,-90.78983000000001
130,4130035,Saline County,34.64662,-92.67657,AR,US.AR.125,4101241.0,Benton,34.56454,-92.58683,5125,Benton,34.56454,-92.58683
131,4130373,Scott County,34.86077,-94.06325,AR,US.AR.127,4135004.0,Waldron,34.89843,-94.09076,5127,Waldron,34.89843,-94.09076
132,4130432,Searcy County,35.9109,-92.69949,AR,US.AR.129,4120611.0,Marshall,35.90896,-92.63127,5129,Marshall,35.90896,-92.63127
133,4130449,Sebastian County,35.199259999999995,-94.27391,AR,US.AR.131,,,,,5131,Sebastian County,35.199259999999995,-94.27391
134,4130562,Sevier County,33.9972,-94.24122,AR,US.AR.133,4107802.0,De Queen,34.037890000000004,-94.34132,5133,De Queen,34.037890000000004,-94.34132
135,4130730,Sharp County,36.161159999999995,-91.47986,AR,US.AR.135,4099837.0,Ash Flat,36.22396,-91.60848,5135,Ash Flat,36.22396,-91.60848
136,4132456,Stone County,35.85987,-92.15668000000001,AR,US.AR.137,4122986.0,Mountain View,35.86841,-92.11765,5137,Mountain View,35.86841,-92.11765
137,4134330,Union County,33.17136,-92.59729,AR,US.AR.139,4109785.0,El Dorado,33.20763,-92.66627,5139,El Dorado,33.20763,-92.66627
138,4134690,Van Buren County,35.58065,-92.5157,AR,US.AR.141,4106074.0,Clinton,35.59147,-92.46044,5141,Clinton,35.59147,-92.46044
139,4135394,Washington County,35.97907,-94.21558,AR,US.AR.143,4110486.0,Fayetteville,36.06258,-94.15743,5143,Fayetteville,36.06258,-94.15743
140,4136143,White County,35.25627,-91.74555,AR,US.AR.145,4130430.0,Searcy,35.250640000000004,-91.73625,5145,Searcy,35.250640000000004,-91.73625
141,4137047,Woodruff County,35.18633,-91.24306999999999,AR,US.AR.147,4099952.0,Augusta,35.282309999999995,-91.36541,5147,Augusta,35.282309999999995,-91.36541
142,4137268,Yell County,35.0026,-93.41125,AR,US.AR.149,,,,,5149,Yell County,35.0026,-93.41125
143,4140987,Washington County,38.96678,-77.04137,DC,US.DC.001,,,,,11001,Washington County,38.96678,-77.04137
144,4143221,Kent County,39.09595,-75.50461,DE,US.DE.001,,,,,10001,Kent County,39.09595,-75.50461
145,4143835,New Castle County,39.57833,-75.63898,DE,US.DE.003,4145381.0,Wilmington,39.74595,-75.54659000000001,10003,Wilmington,39.74595,-75.54659000000001
146,4144895,Sussex County,38.6833,-75.33954,DE,US.DE.005,4142643.0,Georgetown,38.69011,-75.38547,10005,Georgetown,38.69011,-75.38547
147,4145709,Alachua County,29.67476,-82.3577,FL,US.FL.001,4156404.0,Gainesville,29.651629999999997,-82.32483,12001,Gainesville,29.651629999999997,-82.32483
148,4146548,Baker County,30.33107,-82.28459000000001,FL,US.FL.003,4163083.0,Macclenny,30.28218,-82.12206,12003,Macclenny,30.28218,-82.12206
149,4146810,Bay County,30.23765,-85.63261999999999,FL,US.FL.005,4167694.0,Panama City,30.15946,-85.65983,12005,Panama City,30.15946,-85.65983
150,4148735,Bradford County,29.949959999999997,-82.16878,FL,US.FL.007,4173999.0,Starke,29.944129999999998,-82.10983,12007,Starke,29.944129999999998,-82.10983
151,4148826,Brevard County,28.300309999999996,-80.70121,FL,US.FL.009,4175437.0,Titusville,28.61222,-80.80755,12009,Titusville,28.61222,-80.80755
152,4149007,Broward County,26.15186,-80.45589,FL,US.FL.011,4155966.0,Fort Lauderdale,26.12231,-80.14338000000001,12011,Fort Lauderdale,26.12231,-80.14338000000001
153,4149608,Calhoun County,30.406029999999998,-85.19721,FL,US.FL.013,4148237.0,Blountstown,30.443790000000003,-85.04744000000001,12013,Blountstown,30.443790000000003,-85.04744000000001
154,4150627,Charlotte County,26.89985,-81.95031,FL,US.FL.015,4169452.0,Punta Gorda,26.929779999999997,-82.04536999999999,12015,Punta Gorda,26.929779999999997,-82.04536999999999
155,4151140,Citrus County,28.84757,-82.52011,FL,US.FL.017,4159786.0,Inverness,28.835820000000002,-82.33037,12017,Inverness,28.835820000000002,-82.33037
156,4151245,Clay County,29.98307,-81.85789,FL,US.FL.019,4157427.0,Green Cove Springs,29.991909999999997,-81.67815,12019,Green Cove Springs,29.991909999999997,-81.67815
157,4151550,Collier County,26.099239999999998,-81.38096999999999,FL,US.FL.021,4165565.0,Naples,26.14234,-81.79596,12021,Naples,26.14234,-81.79596
158,4151595,Columbia County,30.22424,-82.62154,FL,US.FL.023,4161187.0,Lake City,30.18968,-82.63929,12023,Lake City,30.18968,-82.63929
159,4152927,DeSoto County,27.186320000000002,-81.8093,FL,US.FL.027,4146206.0,Arcadia,27.21588,-81.85842,12027,Arcadia,27.21588,-81.85842
160,4153352,Dixie County,29.58124,-83.18703000000001,FL,US.FL.029,4152395.0,Cross City,29.63465,-83.12694,12029,Cross City,29.63465,-83.12694
161,4153840,Duval County,30.335440000000002,-81.64801,FL,US.FL.031,4160021.0,Jacksonville,30.332179999999997,-81.65565,12031,Jacksonville,30.332179999999997,-81.65565
162,4154550,Escambia County,30.6144,-87.34136,FL,US.FL.033,4168228.0,Pensacola,30.42131,-87.21691,12033,Pensacola,30.42131,-87.21691
163,4155535,Flagler County,29.47115,-81.29299,FL,US.FL.035,4149363.0,Bunnell,29.46609,-81.25784,12035,Bunnell,29.46609,-81.25784
164,4156210,Franklin County,29.81168,-84.80046,FL,US.FL.037,4146148.0,Apalachicola,29.726,-84.9856,12037,Apalachicola,29.726,-84.9856
165,4156394,Gadsden County,30.57947,-84.6136,FL,US.FL.039,4169510.0,Quincy,30.58714,-84.58325,12039,Quincy,30.58714,-84.58325
166,4156770,Gilchrist County,29.725820000000002,-82.80037,FL,US.FL.041,4175637.0,Trenton,29.613290000000003,-82.81761999999999,12041,Trenton,29.613290000000003,-82.81761999999999
167,4156815,Glades County,26.95648,-81.18898,FL,US.FL.043,4164836.0,Moore Haven,26.83312,-81.09312,12043,Moore Haven,26.83312,-81.09312
168,4157652,Gulf County,29.908620000000003,-85.26101,FL,US.FL.045,4169166.0,Port Saint Joe,29.81188,-85.30297,12045,Port Saint Joe,29.81188,-85.30297
169,4157924,Hamilton County,30.49643,-82.94796,FL,US.FL.047,4160102.0,Jasper,30.51827,-82.94819,12047,Jasper,30.51827,-82.94819
170,4158068,Hardee County,27.4927,-81.80993000000001,FL,US.FL.049,4177569.0,Wauchula,27.547259999999998,-81.81147,12049,Wauchula,27.547259999999998,-81.81147
171,4158392,Hendry County,26.553490000000004,-81.1659,FL,US.FL.051,4161075.0,LaBelle,26.76173,-81.43841,12051,LaBelle,26.76173,-81.43841
172,4158449,Hernando County,28.55617,-82.46849,FL,US.FL.053,4148986.0,Brooksville,28.55554,-82.38991,12053,Brooksville,28.55554,-82.38991
173,4158643,Highlands County,27.3434,-81.34097,FL,US.FL.055,4172383.0,Sebring,27.495590000000004,-81.44091,12055,Sebring,27.495590000000004,-81.44091
174,4158712,Hillsborough County,27.906229999999997,-82.34692,FL,US.FL.057,4174757.0,Tampa,27.94752,-82.45843,12057,Tampa,27.94752,-82.45843
175,4158961,Holmes County,30.867890000000003,-85.8141,FL,US.FL.059,4148526.0,Bonifay,30.791859999999996,-85.67965,12059,Bonifay,30.791859999999996,-85.67965
176,4159657,Indian River County,27.69639,-80.57409,FL,US.FL.061,4176409.0,Vero Beach,27.638640000000002,-80.39726999999999,12061,Vero Beach,27.638640000000002,-80.39726999999999
177,4159990,Jackson County,30.79539,-85.21546,FL,US.FL.063,4163428.0,Marianna,30.774359999999998,-85.22686999999999,12063,Marianna,30.774359999999998,-85.22686999999999
178,4160118,Jefferson County,30.42346,-83.90047,FL,US.FL.065,4164803.0,Monticello,30.54515,-83.8713,12065,Monticello,30.54515,-83.8713
179,4161127,Lafayette County,29.98552,-83.18106999999999,FL,US.FL.067,4163723.0,Mayo,30.053,-83.17486,12067,Mayo,30.053,-83.17486
180,4161204,Lake County,28.761470000000003,-81.7113,FL,US.FL.069,4174861.0,Tavares,28.804159999999996,-81.72563000000001,12069,Tavares,28.804159999999996,-81.72563000000001
181,4161743,Lee County,26.625359999999997,-81.84952,FL,US.FL.071,4155995.0,Fort Myers,26.621679999999998,-81.84059,12071,Fort Myers,26.621679999999998,-81.84059
182,4161831,Leon County,30.458040000000004,-84.27788000000001,FL,US.FL.073,,,,,12073,Leon County,30.458040000000004,-84.27788000000001
183,4161891,Levy County,29.28221,-82.78860999999999,FL,US.FL.075,4148957.0,Bronson,29.447740000000003,-82.64233,12075,Bronson,29.447740000000003,-82.64233
184,4161925,Liberty County,30.241359999999997,-84.88291,FL,US.FL.077,4148912.0,Bristol,30.432470000000002,-84.97702,12077,Bristol,30.432470000000002,-84.97702
185,4163142,Madison County,30.44414,-83.47012,FL,US.FL.079,4163140.0,Madison,30.469379999999997,-83.41293,12079,Madison,30.469379999999997,-83.41293
186,4163277,Manatee County,27.477520000000002,-82.35754,FL,US.FL.081,4148708.0,Bradenton,27.498929999999998,-82.57481999999999,12081,Bradenton,27.498929999999998,-82.57481999999999
187,4163456,Marion County,29.2102,-82.05668,FL,US.FL.083,4166673.0,Ocala,29.1872,-82.14009,12083,Ocala,29.1872,-82.14009
188,4163566,Martin County,27.081570000000003,-80.39851,FL,US.FL.085,4174201.0,Stuart,27.19755,-80.25283,12085,Stuart,27.19755,-80.25283
189,4164238,Miami-Dade County,25.608970000000003,-80.49866999999999,FL,US.FL.086,4164138.0,Miami,25.77427,-80.19366,12086,Miami,25.77427,-80.19366
190,4164762,Monroe County,25.55731,-80.91705,FL,US.FL.087,4160812.0,Key West,24.555239999999998,-81.78163,12087,Key West,24.555239999999998,-81.78163
191,4165603,Nassau County,30.61058,-81.77141999999999,FL,US.FL.089,4155006.0,Fernandina Beach,30.66968,-81.46259,12089,Fernandina Beach,30.66968,-81.46259
192,4166818,Okaloosa County,30.665029999999998,-86.59218,FL,US.FL.091,4152311.0,Crestview,30.76213,-86.57051,12091,Crestview,30.76213,-86.57051
193,4166825,Okeechobee County,27.386290000000002,-80.88858,FL,US.FL.093,4166822.0,Okeechobee,27.24393,-80.82978,12093,Okeechobee,27.24393,-80.82978
194,4167060,Orange County,28.51442,-81.32348,FL,US.FL.095,4167147.0,Orlando,28.53834,-81.37924,12095,Orlando,28.53834,-81.37924
195,4167218,Osceola County,28.062659999999997,-81.14948000000001,FL,US.FL.097,4160983.0,Kissimmee,28.304679999999998,-81.41667,12097,Kissimmee,28.304679999999998,-81.41667
196,4167510,Palm Beach County,26.64757,-80.43651,FL,US.FL.099,4177887.0,West Palm Beach,26.71534,-80.05337,12099,West Palm Beach,26.71534,-80.05337
197,4167895,Pasco County,28.30674,-82.43887,FL,US.FL.101,4152695.0,Dade City,28.364720000000002,-82.19592,12101,Dade City,28.364720000000002,-82.19592
198,4168618,Pinellas County,27.90268,-82.73955,FL,US.FL.103,4151316.0,Clearwater,27.96585,-82.8001,12103,Clearwater,27.96585,-82.8001
199,4168988,Polk County,27.94888,-81.69767,FL,US.FL.105,4146723.0,Bartow,27.896409999999996,-81.84314,12105,Bartow,27.896409999999996,-81.84314
200,4169471,Putnam County,29.608629999999998,-81.7443,FL,US.FL.107,4167482.0,Palatka,29.64858,-81.63758,12107,Palatka,29.64858,-81.63758
201,4171153,Saint Johns County,29.91218,-81.40989,FL,US.FL.109,4170894.0,Saint Augustine,29.89469,-81.31452,12109,Saint Augustine,29.89469,-81.31452
202,4171260,Saint Lucie County,27.380809999999997,-80.44554000000001,FL,US.FL.111,4156018.0,Fort Pierce,27.446709999999996,-80.32561,12111,Fort Pierce,27.446709999999996,-80.32561
203,4172096,Santa Rosa County,30.6929,-87.01845,FL,US.FL.113,4164547.0,Milton,30.632409999999997,-87.03969000000001,12113,Milton,30.632409999999997,-87.03969000000001
204,4172139,Sarasota County,27.182479999999998,-82.36498,FL,US.FL.115,4172131.0,Sarasota,27.33643,-82.53065,12115,Sarasota,27.33643,-82.53065
205,4172445,Seminole County,28.71698,-81.2363,FL,US.FL.117,4172086.0,Sanford,28.80055,-81.27311999999999,12117,Sanford,28.80055,-81.27311999999999
206,4174301,Sumter County,28.70482,-82.081,FL,US.FL.119,4149433.0,Bushnell,28.664990000000003,-82.11286,12119,Bushnell,28.664990000000003,-82.11286
207,4174543,Suwannee County,30.19561,-82.99149,FL,US.FL.121,4162461.0,Live Oak,30.29495,-82.98402,12121,Live Oak,30.29495,-82.98402
208,4174886,Taylor County,30.01957,-83.61896999999999,FL,US.FL.123,4168244.0,Perry,30.117659999999997,-83.58274,12123,Perry,30.117659999999997,-83.58274
209,4176099,Union County,30.043840000000003,-82.37144,FL,US.FL.125,4161171.0,Lake Butler,30.022740000000002,-82.33955999999999,12125,Lake Butler,30.022740000000002,-82.33955999999999
210,4176559,Volusia County,29.06345,-81.14856999999999,FL,US.FL.127,4152890.0,DeLand,29.02832,-81.30311999999999,12127,DeLand,29.02832,-81.30311999999999
211,4177321,Wakulla County,30.14777,-84.37561,FL,US.FL.129,4152267.0,Crawfordville,30.176040000000004,-84.37518,12129,Crawfordville,30.176040000000004,-84.37518
212,4177409,Walton County,30.618470000000002,-86.17152,FL,US.FL.131,4152888.0,DeFuniak Springs,30.721020000000003,-86.11522,12131,DeFuniak Springs,30.721020000000003,-86.11522
213,4177485,Washington County,30.610590000000002,-85.66533000000001,FL,US.FL.133,4150769.0,Chipley,30.781859999999998,-85.53854,12133,Chipley,30.781859999999998,-85.53854
214,4180088,Appling County,31.74928,-82.28898000000001,GA,US.GA.001,4181333.0,Baxley,31.77825,-82.34846,13001,Baxley,31.77825,-82.34846
215,4180432,Atkinson County,31.297109999999996,-82.87999,GA,US.GA.003,4215163.0,Pearson,31.2977,-82.85237,13003,Pearson,31.2977,-82.85237
216,4180711,Bacon County,31.55367,-82.45269,GA,US.GA.005,4179557.0,Alma,31.53937,-82.46236,13005,Alma,31.53937,-82.46236
217,4180816,Baker County,31.326179999999997,-84.44467,GA,US.GA.007,4212728.0,Newton,31.312959999999997,-84.33574,13007,Newton,31.312959999999997,-84.33574
218,4180872,Baldwin County,33.06928,-83.24959,GA,US.GA.009,4209448.0,Milledgeville,33.08014,-83.2321,13009,Milledgeville,33.08014,-83.2321
219,4180965,Banks County,34.35413,-83.49736999999999,GA,US.GA.011,4201141.0,Homer,34.33372,-83.49905,13011,Homer,34.33372,-83.49905
220,4181182,Barrow County,33.9932,-83.71276,GA,US.GA.013,4231523.0,Winder,33.99261,-83.72017,13013,Winder,33.99261,-83.72017
221,4181218,Bartow County,34.23786,-84.8405,GA,US.GA.015,4186531.0,Cartersville,34.16533,-84.80230999999999,13015,Cartersville,34.16533,-84.80230999999999
222,4181955,Ben Hill County,31.75978,-83.22046,GA,US.GA.017,4195168.0,Fitzgerald,31.714909999999996,-83.25265,13017,Fitzgerald,31.714909999999996,-83.25265
223,4182126,Berrien County,31.276059999999998,-83.22962,GA,US.GA.019,4211839.0,Nashville,31.207420000000003,-83.25015,13019,Nashville,31.207420000000003,-83.25015
224,4182755,Bibb County,32.80659,-83.69776,GA,US.GA.021,4207400.0,Macon,32.84069,-83.6324,13021,Macon,32.84069,-83.6324
225,4183415,Bleckley County,32.43444,-83.32784000000001,GA,US.GA.023,4188590.0,Cochran,32.386829999999996,-83.35461,13023,Cochran,32.386829999999996,-83.35461
226,4184153,Brantley County,31.19688,-81.9819,GA,US.GA.025,4211775.0,Nahunta,31.204390000000004,-81.98123000000001,13025,Nahunta,31.204390000000004,-81.98123000000001
227,4184557,Brooks County,30.84197,-83.58021,GA,US.GA.027,4217712.0,Quitman,30.78492,-83.55988,13027,Quitman,30.78492,-83.55988
228,4184899,Bryan County,32.013220000000004,-81.44247,GA,US.GA.029,4215251.0,Pembroke,32.136340000000004,-81.62348,13029,Pembroke,32.136340000000004,-81.62348
229,4185202,Bulloch County,32.396809999999995,-81.74318000000001,GA,US.GA.031,4224413.0,Statesboro,32.44879,-81.78317,13031,Statesboro,32.44879,-81.78317
230,4185265,Burke County,33.06115,-82.00078,GA,US.GA.033,4229791.0,Waynesboro,33.08987,-82.01567,13033,Waynesboro,33.08987,-82.01567
231,4185484,Butts County,33.28785,-83.95716999999999,GA,US.GA.035,4202426.0,Jackson,33.29457,-83.96602,13035,Jackson,33.29457,-83.96602
232,4185662,Calhoun County,31.5292,-84.62451,GA,US.GA.037,4210099.0,Morgan,31.537670000000002,-84.59936,13037,Morgan,31.537670000000002,-84.59936
233,4185838,Camden County,30.922490000000003,-81.63639,GA,US.GA.039,4231725.0,Woodbine,30.963959999999997,-81.72416,13039,Woodbine,30.963959999999997,-81.72416
234,4186104,Candler County,32.40344,-82.07366999999999,GA,US.GA.043,4209013.0,Metter,32.39712,-82.06012,13043,Metter,32.39712,-82.06012
235,4186396,Carroll County,33.58282,-85.07974,GA,US.GA.045,4186416.0,Carrollton,33.58011,-85.07661,13045,Carrollton,33.58011,-85.07661
236,4186713,Catoosa County,34.903659999999995,-85.13825,GA,US.GA.047,4218896.0,Ringgold,34.91591,-85.10911999999999,13047,Ringgold,34.91591,-85.10911999999999
237,4187348,Charlton County,30.78172,-82.13769,GA,US.GA.049,4195600.0,Folkston,30.83095,-82.01131,13049,Folkston,30.83095,-82.01131
238,4187390,Chatham County,31.97402,-81.09243000000001,GA,US.GA.051,4221552.0,Savannah,32.08354,-81.09983000000001,13051,Savannah,32.08354,-81.09983000000001
239,4187416,Chattahoochee County,32.34697,-84.78705,GA,US.GA.053,4190434.0,Cusseta,32.30543,-84.7727,13053,Cusseta,32.30543,-84.7727
240,4187459,Chattooga County,34.47502,-85.34529,GA,US.GA.055,4225122.0,Summerville,34.48064,-85.34773,13055,Summerville,34.48064,-85.34773
241,4187535,Cherokee County,34.24393,-84.4762,GA,US.GA.057,4186213.0,Canton,34.23676,-84.49076,13057,Canton,34.23676,-84.49076
242,4188191,Clarke County,33.95117,-83.36733000000001,GA,US.GA.059,4180386.0,Athens,33.96095,-83.37794,13059,Athens,33.96095,-83.37794
243,4188258,Clay County,31.626279999999998,-84.9801,GA,US.GA.061,4195809.0,Fort Gaines,31.609240000000003,-85.04933,13061,Fort Gaines,31.609240000000003,-85.04933
244,4188291,Clayton County,33.54189,-84.35769,GA,US.GA.063,4203316.0,Jonesboro,33.5215,-84.35381,13063,Jonesboro,33.5215,-84.35381
245,4188433,Clinch County,30.91495,-82.70624000000001,GA,US.GA.065,4201144.0,Homerville,31.0366,-82.74708000000001,13065,Homerville,31.0366,-82.74708000000001
246,4188547,Cobb County,33.94147,-84.57667,GA,US.GA.067,4207783.0,Marietta,33.9526,-84.54993,13067,Marietta,33.9526,-84.54993
247,4188653,Coffee County,31.54927,-82.8492,GA,US.GA.069,4191916.0,Douglas,31.508809999999997,-82.84987,13069,Douglas,31.508809999999997,-82.84987
248,4188937,Colquitt County,31.188390000000002,-83.76885,GA,US.GA.071,4210397.0,Moultrie,31.179909999999996,-83.78905999999999,13071,Moultrie,31.179909999999996,-83.78905999999999
249,4188957,Columbia County,33.54412,-82.26406,GA,US.GA.073,4180085.0,Appling,33.546079999999996,-82.3173,13073,Appling,33.546079999999996,-82.3173
250,4189236,Cook County,31.153990000000004,-83.43047,GA,US.GA.075,4179193.0,Adel,31.13727,-83.42408,13075,Adel,31.13727,-83.42408
251,4189828,Coweta County,33.35346,-84.76337,GA,US.GA.077,4212684.0,Newnan,33.38067,-84.79966,13077,Newnan,33.38067,-84.79966
252,4189924,Crawford County,32.7145,-83.98634,GA,US.GA.079,4204196.0,Knoxville,32.724309999999996,-83.99769,13079,Knoxville,32.724309999999996,-83.99769
253,4190062,Crisp County,31.922929999999997,-83.7681,GA,US.GA.081,4189423.0,Cordele,31.96351,-83.78239,13081,Cordele,31.96351,-83.78239
254,4190530,Dade County,34.85452,-85.50453,GA,US.GA.083,,,,,13083,Dade County,34.85452,-85.50453
255,4190959,Dawson County,34.4443,-84.17064,GA,US.GA.085,4190979.0,Dawsonville,34.421209999999995,-84.11908000000001,13085,Dawsonville,34.421209999999995,-84.11908000000001
256,4191014,DeKalb County,33.77153,-84.22641,GA,US.GA.089,4191124.0,Decatur,33.77483,-84.29630999999999,13089,Decatur,33.77483,-84.29630999999999
257,4191127,Decatur County,30.87834,-84.57907,GA,US.GA.087,4180775.0,Bainbridge,30.9038,-84.57547,13087,Bainbridge,30.9038,-84.57547
258,4191654,Dodge County,32.17218,-83.1684,GA,US.GA.091,4192754.0,Eastman,32.19767,-83.17765,13091,Eastman,32.19767,-83.17765
259,4191760,Dooly County,32.15718,-83.79875,GA,US.GA.093,4228440.0,Vienna,32.09156,-83.79545,13093,Vienna,32.09156,-83.79545
260,4191903,Dougherty County,31.53337,-84.21625,GA,US.GA.095,4179320.0,Albany,31.578509999999998,-84.15574000000001,13095,Albany,31.578509999999998,-84.15574000000001
261,4191928,Douglas County,33.70182,-84.76793,GA,US.GA.097,4191955.0,Douglasville,33.7515,-84.74771,13097,Douglasville,33.7515,-84.74771
262,4192532,Early County,31.32283,-84.90364,GA,US.GA.099,4183363.0,Blakely,31.377679999999998,-84.93409,13099,Blakely,31.377679999999998,-84.93409
263,4192932,Echols County,30.71009,-82.89394,GA,US.GA.101,4224412.0,Statenville,30.70327,-83.02764,13101,Statenville,30.70327,-83.02764
264,4193042,Effingham County,32.367309999999996,-81.34134,GA,US.GA.103,4224162.0,Springfield,32.372409999999995,-81.3115,13103,Springfield,32.372409999999995,-81.3115
265,4193088,Elbert County,34.11679,-82.8401,GA,US.GA.105,4193099.0,Elberton,34.11159,-82.86863000000001,13105,Elberton,34.11159,-82.86863000000001
266,4193335,Emanuel County,32.58976,-82.30171,GA,US.GA.107,4225346.0,Swainsboro,32.597390000000004,-82.33374,13107,Swainsboro,32.597390000000004,-82.33374
267,4193705,Evans County,32.15676,-81.88688,GA,US.GA.109,4188239.0,Claxton,32.16158,-81.904,13109,Claxton,32.16158,-81.904
268,4194387,Fannin County,34.86411,-84.31985,GA,US.GA.111,4183521.0,Blue Ridge,34.86397,-84.32409,13111,Blue Ridge,34.86397,-84.32409
269,4194465,Fayette County,33.413940000000004,-84.49419,GA,US.GA.113,4194474.0,Fayetteville,33.44873,-84.45493,13113,Fayetteville,33.44873,-84.45493
270,4195536,Floyd County,34.26316,-85.21428,GA,US.GA.115,4219762.0,Rome,34.25704,-85.16467,13115,Rome,34.25704,-85.16467
271,4195777,Forsyth County,34.22551,-84.12501999999999,GA,US.GA.117,4190396.0,Cumming,34.20732,-84.14019,13117,Cumming,34.20732,-84.14019
272,4196096,Franklin County,34.375440000000005,-83.22918,GA,US.GA.119,4186352.0,Carnesville,34.36983,-83.23516,13119,Carnesville,34.36983,-83.23516
273,4196508,Fulton County,33.79025,-84.46701999999999,GA,US.GA.121,,,,,13121,Fulton County,33.79025,-84.46701999999999
274,4197146,Gilmer County,34.69121,-84.45559,GA,US.GA.123,4193229.0,Ellijay,34.69481,-84.48215,13123,Ellijay,34.69481,-84.48215
275,4197240,Glascock County,33.229279999999996,-82.6107,GA,US.GA.125,4197055.0,Gibson,33.23348,-82.59541,13125,Gibson,33.23348,-82.59541
276,4197388,Glynn County,31.213240000000003,-81.4937,GA,US.GA.127,4184845.0,Brunswick,31.14995,-81.49149,13127,Brunswick,31.14995,-81.49149
277,4197608,Gordon County,34.50336,-84.87575,GA,US.GA.129,4185657.0,Calhoun,34.502590000000005,-84.95105,13129,Calhoun,34.502590000000005,-84.95105
278,4197807,Grady County,30.874670000000002,-84.23443,GA,US.GA.131,4185632.0,Cairo,30.877509999999997,-84.20214,13131,Cairo,30.877509999999997,-84.20214
279,4198160,Greene County,33.57878,-83.16666,GA,US.GA.133,4198204.0,Greensboro,33.57568,-83.18238000000001,13133,Greensboro,33.57568,-83.18238000000001
280,4198645,Gwinnett County,33.961729999999996,-84.02363000000001,GA,US.GA.135,4205196.0,Lawrenceville,33.95621,-83.98796,13135,Lawrenceville,33.95621,-83.98796
281,4198688,Habersham County,34.63102,-83.53112,GA,US.GA.137,4188197.0,Clarkesville,34.6126,-83.52489,13137,Clarkesville,34.6126,-83.52489
282,4198821,Hall County,34.31689,-83.81968,GA,US.GA.139,4196586.0,Gainesville,34.29788,-83.82406999999999,13139,Gainesville,34.29788,-83.82406999999999
283,4198997,Hancock County,33.27043,-83.00069,GA,US.GA.141,4223880.0,Sparta,33.2757,-82.97626,13141,Sparta,33.2757,-82.97626
284,4199102,Haralson County,33.79423,-85.21103000000001,GA,US.GA.143,4184962.0,Buchanan,33.8026,-85.18856,13143,Buchanan,33.8026,-85.18856
285,4199416,Harris County,32.736,-84.90899,GA,US.GA.145,4198912.0,Hamilton,32.757909999999995,-84.87493,13145,Hamilton,32.757909999999995,-84.87493
286,4199517,Hart County,34.3509,-82.96425,GA,US.GA.147,4199572.0,Hartwell,34.35288,-82.93209,13147,Hartwell,34.35288,-82.93209
287,4199820,Heard County,33.29703,-85.12827,GA,US.GA.149,4196083.0,Franklin,33.27762,-85.098,13149,Franklin,33.27762,-85.098
288,4200051,Henry County,33.453,-84.1542,GA,US.GA.151,4208442.0,McDonough,33.447340000000004,-84.14686,13151,McDonough,33.447340000000004,-84.14686
289,4201512,Houston County,32.45901,-83.66624,GA,US.GA.153,4215391.0,Perry,32.45821,-83.73156999999999,13153,Perry,32.45821,-83.73156999999999
290,4202266,Irwin County,31.60228,-83.27638,GA,US.GA.155,4213812.0,Ocilla,31.59447,-83.2513,13155,Ocilla,31.59447,-83.2513
291,4202453,Jackson County,34.13388,-83.56635,GA,US.GA.157,4202672.0,Jefferson,34.11705,-83.57239,13157,Jefferson,34.11705,-83.57239
292,4202638,Jasper County,33.31643,-83.68809,GA,US.GA.159,4209951.0,Monticello,33.30485,-83.68323000000001,13159,Monticello,33.30485,-83.68323000000001
293,4202662,Jeff Davis County,31.8056,-82.63694,GA,US.GA.161,4199778.0,Hazlehurst,31.869629999999997,-82.5943,13161,Hazlehurst,31.869629999999997,-82.5943
294,4202678,Jefferson County,33.054840000000006,-82.41815,GA,US.GA.163,4206882.0,Louisville,33.001540000000006,-82.41124,13163,Louisville,33.001540000000006,-82.41124
295,4202750,Jenkins County,32.79247,-81.96353,GA,US.GA.165,4209454.0,Millen,32.80405,-81.94928,13165,Millen,32.80405,-81.94928
296,4202983,Johnson County,32.70146,-82.66008000000001,GA,US.GA.167,4232049.0,Wrightsville,32.72933,-82.71986,13167,Wrightsville,32.72933,-82.71986
297,4203171,Jones County,33.02513,-83.56052,GA,US.GA.169,4197938.0,Gray,33.00958,-83.53378000000001,13169,Gray,33.00958,-83.53378000000001
298,4204869,Lamar County,33.07654,-84.13946,GA,US.GA.171,4181110.0,Barnesville,33.05457,-84.15575,13171,Barnesville,33.05457,-84.15575
299,4205013,Lanier County,31.03789,-83.06265,GA,US.GA.173,4204775.0,Lakeland,31.041040000000002,-83.07515,13173,Lakeland,31.041040000000002,-83.07515
300,4205152,Laurens County,32.46366,-82.92224,GA,US.GA.175,4192205.0,Dublin,32.540440000000004,-82.90375,13175,Dublin,32.540440000000004,-82.90375
301,4205331,Lee County,31.77951,-84.14113,GA,US.GA.177,4205392.0,Leesburg,31.732120000000002,-84.17074000000001,13177,Leesburg,31.732120000000002,-84.17074000000001
302,4205615,Liberty County,31.80723,-81.45626,GA,US.GA.179,4200671.0,Hinesville,31.84688,-81.59595,13179,Hinesville,31.84688,-81.59595
303,4205780,Lincoln County,33.793659999999996,-82.45121,GA,US.GA.181,4205797.0,Lincolnton,33.79235,-82.47901999999999,13181,Lincolnton,33.79235,-82.47901999999999
304,4207045,Lowndes County,30.833859999999998,-83.26771,GA,US.GA.185,4228147.0,Valdosta,30.833340000000003,-83.28031999999999,13185,Valdosta,30.833340000000003,-83.28031999999999
305,4207132,Lumpkin County,34.57219,-84.00265,GA,US.GA.187,4190542.0,Dahlonega,34.53259,-83.98491,13187,Dahlonega,34.53259,-83.98491
306,4207403,Macon County,32.35839,-84.04248,GA,US.GA.193,4213919.0,Oglethorpe,32.29377,-84.06102,13193,Oglethorpe,32.29377,-84.06102
307,4207451,Madison County,34.12778,-83.20904,GA,US.GA.195,4190721.0,Danielsville,34.12428,-83.22126,13195,Danielsville,34.12428,-83.22126
308,4207805,Marion County,32.35338,-84.52464,GA,US.GA.197,4185076.0,Buena Vista,32.31904,-84.51714,13197,Buena Vista,32.31904,-84.51714
309,4208454,McDuffie County,33.48285,-82.48137,GA,US.GA.189,4226435.0,Thomson,33.470690000000005,-82.50457,13189,Thomson,33.470690000000005,-82.50457
310,4208544,McIntosh County,31.48381,-81.37557,GA,US.GA.191,,,,,13191,McIntosh County,31.48381,-81.37557
311,4208945,Meriwether County,33.040659999999995,-84.68831,GA,US.GA.199,4198218.0,Greenville,33.02874,-84.71298,13199,Greenville,33.02874,-84.71298
312,4209479,Miller County,31.163990000000002,-84.73071999999999,GA,US.GA.201,4188934.0,Colquitt,31.171290000000003,-84.73325,13201,Colquitt,31.171290000000003,-84.73325
313,4209744,Mitchell County,31.22532,-84.19431,GA,US.GA.205,4185863.0,Camilla,31.23129,-84.21046,13205,Camilla,31.23129,-84.21046
314,4209889,Monroe County,33.01408,-83.91872,GA,US.GA.207,4195771.0,Forsyth,33.0343,-83.93824000000001,13207,Forsyth,33.0343,-83.93824000000001
315,4209939,Montgomery County,32.173359999999995,-82.53482,GA,US.GA.209,4211083.0,Mount Vernon,32.178509999999996,-82.59458000000001,13209,Mount Vernon,32.178509999999996,-82.59458000000001
316,4210114,Morgan County,33.59083,-83.49238000000001,GA,US.GA.211,4207447.0,Madison,33.59568,-83.46794,13211,Madison,33.59568,-83.46794
317,4211691,Murray County,34.78845,-84.74809,GA,US.GA.213,4187435.0,Chatsworth,34.76591,-84.76994,13213,Chatsworth,34.76591,-84.76994
318,4211716,Muscogee County,32.50996,-84.87704000000001,GA,US.GA.215,4188985.0,Columbus,32.46098,-84.98770999999999,13215,Columbus,32.46098,-84.98770999999999
319,4212736,Newton County,33.55505,-83.85019,GA,US.GA.217,4189785.0,Covington,33.596779999999995,-83.86018,13217,Covington,33.596779999999995,-83.86018
320,4213838,Oconee County,33.83494,-83.43705,GA,US.GA.219,4229691.0,Watkinsville,33.8629,-83.40876999999999,13219,Watkinsville,33.8629,-83.40876999999999
321,4213930,Oglethorpe County,33.88065,-83.0807,GA,US.GA.221,4205541.0,Lexington,33.86984,-83.11182,13221,Lexington,33.86984,-83.11182
322,4214993,Paulding County,33.92055,-84.86729,GA,US.GA.223,4190598.0,Dallas,33.92371,-84.84076999999999,13223,Dallas,33.92371,-84.84076999999999
323,4215089,Peach County,32.56878,-83.82688,GA,US.GA.225,4195869.0,Fort Valley,32.55376,-83.88741,13225,Fort Valley,32.55376,-83.88741
324,4215637,Pickens County,34.46432,-84.46564000000001,GA,US.GA.227,4202634.0,Jasper,34.46787,-84.42909,13227,Jasper,34.46787,-84.42909
325,4215697,Pierce County,31.358759999999997,-82.21274,GA,US.GA.229,4183305.0,Blackshear,31.30605,-82.24207,13229,Blackshear,31.30605,-82.24207
326,4215755,Pike County,33.09227,-84.38923,GA,US.GA.231,4232308.0,Zebulon,33.10235,-84.3427,13231,Zebulon,33.10235,-84.3427
327,4216880,Polk County,34.00178,-85.18815,GA,US.GA.233,4186955.0,Cedartown,34.01123,-85.25593,13233,Cedartown,34.01123,-85.25593
328,4217563,Pulaski County,32.2323,-83.47596,GA,US.GA.235,4199694.0,Hawkinsville,32.283770000000004,-83.47211999999999,13235,Hawkinsville,32.283770000000004,-83.47211999999999
329,4217625,Putnam County,33.32177,-83.37284,GA,US.GA.237,4192800.0,Eatonton,33.3268,-83.3885,13237,Eatonton,33.3268,-83.3885
330,4217715,Quitman County,31.86733,-85.01878,GA,US.GA.239,4196919.0,Georgetown,31.88461,-85.10743000000001,13239,Georgetown,31.88461,-85.10743000000001
331,4217747,Rabun County,34.881679999999996,-83.40214,GA,US.GA.241,4188287.0,Clayton,34.87815,-83.40099000000001,13241,Clayton,34.87815,-83.40099000000001
332,4217909,Randolph County,31.762620000000002,-84.75419000000001,GA,US.GA.243,4190451.0,Cuthbert,31.77127,-84.78936999999999,13243,Cuthbert,31.77127,-84.78936999999999
333,4218744,Richmond County,33.359629999999996,-82.07355,GA,US.GA.245,4180531.0,Augusta,33.47097,-81.97484,13245,Augusta,33.47097,-81.97484
334,4219431,Rockdale County,33.65424,-84.02660999999999,GA,US.GA.247,4189213.0,Conyers,33.667609999999996,-84.01769,13247,Conyers,33.667609999999996,-84.01769
335,4221659,Schley County,32.26169,-84.31472,GA,US.GA.249,4193210.0,Ellaville,32.238209999999995,-84.30908000000001,13249,Ellaville,32.238209999999995,-84.30908000000001
336,4221757,Screven County,32.75059,-81.61193,GA,US.GA.251,4225515.0,Sylvania,32.750440000000005,-81.63678,13251,Sylvania,32.750440000000005,-81.63678
337,4221942,Seminole County,30.938779999999998,-84.86887,GA,US.GA.253,4191735.0,Donalsonville,31.040459999999996,-84.87909,13253,Donalsonville,31.040459999999996,-84.87909
338,4223848,Spalding County,33.260870000000004,-84.28416,GA,US.GA.255,4198322.0,Griffin,33.24678,-84.26409,13255,Griffin,33.24678,-84.26409
339,4224510,Stephens County,34.553940000000004,-83.29343,GA,US.GA.257,4226722.0,Toccoa,34.57732,-83.33239,13257,Toccoa,34.57732,-83.33239
340,4224592,Stewart County,32.07846,-84.8352,GA,US.GA.259,4207128.0,Lumpkin,32.050990000000006,-84.79909,13259,Lumpkin,32.050990000000006,-84.79909
341,4225168,Sumter County,32.039970000000004,-84.19704,GA,US.GA.261,4179667.0,Americus,32.072390000000006,-84.23269,13261,Americus,32.072390000000006,-84.23269
342,4225609,Talbot County,32.699490000000004,-84.53301,GA,US.GA.263,4225613.0,Talbotton,32.677640000000004,-84.53936999999999,13263,Talbotton,32.677640000000004,-84.53936999999999
343,4225621,Taliaferro County,33.56609,-82.87876,GA,US.GA.265,4189960.0,Crawfordville,33.55402,-82.89598000000001,13265,Crawfordville,33.55402,-82.89598000000001
344,4225814,Tattnall County,32.04575,-82.05818000000001,GA,US.GA.267,4218414.0,Reidsville,32.086859999999994,-82.1179,13267,Reidsville,32.086859999999994,-82.1179
345,4225854,Taylor County,32.55546,-84.25046,GA,US.GA.269,4185437.0,Butler,32.55709,-84.23825,13269,Butler,32.55709,-84.23825
346,4225944,Telfair County,31.9298,-82.93899,GA,US.GA.271,4208683.0,McRae,32.06795,-82.9007,13271,McRae,32.06795,-82.9007
347,4226051,Terrell County,31.77688,-84.43692,GA,US.GA.273,4190953.0,Dawson,31.77382,-84.448,13273,Dawson,31.77382,-84.448
348,4226286,Thomas County,30.86368,-83.91931,GA,US.GA.275,4226348.0,Thomasville,30.836579999999998,-83.97878,13275,Thomasville,30.836579999999998,-83.97878
349,4226538,Tift County,31.457440000000002,-83.52659,GA,US.GA.277,4226552.0,Tifton,31.450459999999996,-83.5085,13277,Tifton,31.450459999999996,-83.5085
350,4226802,Toombs County,32.12172,-82.33129,GA,US.GA.279,4207205.0,Lyons,32.20435,-82.32179000000001,13279,Lyons,32.20435,-82.32179000000001
351,4226924,Towns County,34.91665,-83.73728,GA,US.GA.281,4200188.0,Hiawassee,34.949259999999995,-83.75739,13281,Hiawassee,34.949259999999995,-83.75739
352,4227019,Treutlen County,32.40388,-82.56728000000001,GA,US.GA.283,4223516.0,Soperton,32.37712,-82.59236,13283,Soperton,32.37712,-82.59236
353,4227166,Troup County,33.03351,-85.02834,GA,US.GA.285,,,,,13285,Troup County,33.03351,-85.02834
354,4227392,Turner County,31.716379999999997,-83.62409,GA,US.GA.287,4180316.0,Ashburn,31.70601,-83.65321999999999,13287,Ashburn,31.70601,-83.65321999999999
355,4227499,Twiggs County,32.6672,-83.42708,GA,US.GA.289,4202699.0,Jeffersonville,32.68765,-83.34656,13289,Jeffersonville,32.68765,-83.34656
356,4227781,Union County,34.83401,-83.99076,GA,US.GA.291,4183354.0,Blairsville,34.8762,-83.95824,13291,Blairsville,34.8762,-83.95824
357,4228098,Upson County,32.88127,-84.29934,GA,US.GA.293,4226364.0,Thomaston,32.88819,-84.32659,13293,Thomaston,32.88819,-84.32659
358,4229163,Walker County,34.735659999999996,-85.30098000000001,GA,US.GA.295,4204241.0,LaFayette,34.7048,-85.2819,13295,LaFayette,34.7048,-85.2819
359,4229371,Walton County,33.78156,-83.73385,GA,US.GA.297,4209884.0,Monroe,33.79484,-83.71323000000001,13297,Monroe,33.79484,-83.71323000000001
360,4229446,Ware County,31.05363,-82.42368,GA,US.GA.299,4229763.0,Waycross,31.21368,-82.3557,13299,Waycross,31.21368,-82.3557
361,4229498,Warren County,33.40896,-82.67676,GA,US.GA.301,4229517.0,Warrenton,33.40708,-82.66208,13301,Warrenton,33.40708,-82.66208
362,4229557,Washington County,32.96954,-82.7959,GA,US.GA.303,4221206.0,Sandersville,32.98154,-82.81014,13303,Sandersville,32.98154,-82.81014
363,4229782,Wayne County,31.55143,-81.91676,GA,US.GA.305,,,,,13305,Wayne County,31.55143,-81.91676
364,4229882,Webster County,32.04665,-84.55105,GA,US.GA.307,4217343.0,Preston,32.06599,-84.53742,13307,Preston,32.06599,-84.53742
365,4230492,Wheeler County,32.11707,-82.72459,GA,US.GA.309,4179313.0,Alamo,32.14712,-82.77792,13309,Alamo,32.14712,-82.77792
366,4230595,White County,34.646359999999994,-83.74710999999999,GA,US.GA.311,4188377.0,Cleveland,34.59704,-83.76324,13311,Cleveland,34.59704,-83.76324
367,4230822,Whitfield County,34.805609999999994,-84.96722,GA,US.GA.313,4190581.0,Dalton,34.7698,-84.97022,13313,Dalton,34.7698,-84.97022
368,4230919,Wilcox County,31.9729,-83.43236,GA,US.GA.315,4178992.0,Abbeville,31.99212,-83.30682,13315,Abbeville,31.99212,-83.30682
369,4231029,Wilkes County,33.78195,-82.74323000000001,GA,US.GA.317,4229546.0,Washington,33.73679,-82.73931,13317,Washington,33.73679,-82.73931
370,4231046,Wilkinson County,32.802409999999995,-83.17125,GA,US.GA.319,4202277.0,Irwinton,32.81126,-83.17265,13319,Irwinton,32.81126,-83.17265
371,4231976,Worth County,31.551509999999997,-83.85088,GA,US.GA.321,4225522.0,Sylvester,31.530920000000002,-83.83693000000001,13321,Sylvester,31.530920000000002,-83.83693000000001
372,4232512,Adams County,39.98789,-91.18849,IL,US.IL.001,4247703.0,Quincy,39.9356,-91.40987,17001,Quincy,39.9356,-91.40987
373,4232592,Alexander County,37.1916,-89.33764000000001,IL,US.IL.003,4234985.0,Cairo,37.00533,-89.17645999999999,17003,Cairo,37.00533,-89.17645999999999
374,4234184,Bond County,38.88682,-89.43555,IL,US.IL.005,4239867.0,Greenville,38.89227,-89.41314,17005,Greenville,38.89227,-89.41314
375,4234528,Brown County,39.96181,-90.75034000000001,IL,US.IL.009,4245136.0,Mount Sterling,39.98727,-90.76346,17009,Mount Sterling,39.98727,-90.76346
376,4235018,Calhoun County,39.1693,-90.66753,IL,US.IL.013,4240209.0,Hardin,39.15671,-90.6179,17013,Hardin,39.15671,-90.6179
377,4235369,Cass County,39.97356,-90.24738,IL,US.IL.017,4252071.0,Virginia,39.951159999999994,-90.21234,17017,Virginia,39.951159999999994,-90.21234
378,4235793,Christian County,39.545790000000004,-89.27727,IL,US.IL.021,4251141.0,Taylorville,39.54894,-89.29453000000001,17021,Taylorville,39.54894,-89.29453000000001
379,4235954,Clark County,39.33357,-87.78772,IL,US.IL.023,4243951.0,Marshall,39.39143,-87.69364,17023,Marshall,39.39143,-87.69364
380,4235992,Clay County,38.75416,-88.49019,IL,US.IL.025,4243551.0,Louisville,38.77227,-88.50255,17025,Louisville,38.77227,-88.50255
381,4236063,Clinton County,38.60645,-89.42248000000001,IL,US.IL.027,4235229.0,Carlyle,38.61033,-89.37258,17027,Carlyle,38.61033,-89.37258
382,4236157,Coles County,39.52029,-88.2218,IL,US.IL.029,4235668.0,Charleston,39.49615,-88.17615,17029,Charleston,39.49615,-88.17615
383,4236576,Crawford County,39.00269,-87.75956,IL,US.IL.033,4248256.0,Robinson,39.005320000000005,-87.73919000000001,17033,Robinson,39.005320000000005,-87.73919000000001
384,4236738,Cumberland County,39.27332,-88.24023000000001,IL,US.IL.035,4251330.0,Toledo,39.27365,-88.24365,17035,Toledo,39.27365,-88.24365
385,4237204,Douglas County,39.769459999999995,-88.21735,IL,US.IL.041,4251593.0,Tuscola,39.7992,-88.2831,17041,Tuscola,39.7992,-88.2831
386,4237672,Edgar County,39.67853,-87.74557,IL,US.IL.045,4246659.0,Paris,39.61115,-87.69614,17045,Paris,39.61115,-87.69614
387,4237705,Edwards County,38.41653,-88.05327,IL,US.IL.047,4232568.0,Albion,38.37755,-88.05615,17047,Albion,38.37755,-88.05615
388,4237730,Effingham County,39.05977,-88.58986,IL,US.IL.049,4237727.0,Effingham,39.12004,-88.54338,17049,Effingham,39.12004,-88.54338
389,4238245,Fayette County,39.00019,-89.02414,IL,US.IL.051,4251917.0,Vandalia,38.9606,-89.09368,17051,Vandalia,38.9606,-89.09368
390,4238982,Franklin County,37.992290000000004,-88.92415,IL,US.IL.055,4233586.0,Benton,37.99672,-88.92007,17055,Benton,37.99672,-88.92007
391,4239230,Gallatin County,37.76275,-88.2305,IL,US.IL.059,4249830.0,Shawneetown,37.7131,-88.1867,17059,Shawneetown,37.7131,-88.1867
392,4239836,Greene County,39.3562,-90.39049,IL,US.IL.061,4235288.0,Carrollton,39.30227,-90.40706,17061,Carrollton,39.30227,-90.40706
393,4240145,Hamilton County,38.08157,-88.53911,IL,US.IL.065,4244307.0,McLeansboro,38.093379999999996,-88.53560999999999,17065,McLeansboro,38.093379999999996,-88.53560999999999
394,4240212,Hardin County,37.5182,-88.26685,IL,US.IL.069,4237790.0,Elizabethtown,37.445879999999995,-88.30504,17069,Elizabethtown,37.445879999999995,-88.30504
395,4241687,Jackson County,37.785140000000006,-89.38212,IL,US.IL.077,4245336.0,Murphysboro,37.7645,-89.33509000000001,17077,Murphysboro,37.7645,-89.33509000000001
396,4241756,Jasper County,39.01003,-88.15381,IL,US.IL.079,4828384.0,Newton,38.99088,-88.16254,17079,Newton,38.99088,-88.16254
397,4241773,Jefferson County,38.30052,-88.92401,IL,US.IL.081,4245152.0,Mount Vernon,38.31727,-88.90312,17081,Mount Vernon,38.31727,-88.90312
398,4241818,Jersey County,39.08566,-90.35668000000001,IL,US.IL.083,4241822.0,Jerseyville,39.12005,-90.32845,17083,Jerseyville,39.12005,-90.32845
399,4241904,Johnson County,37.45963,-88.88089000000001,IL,US.IL.087,4252025.0,Vienna,37.41533,-88.89784,17087,Vienna,37.41533,-88.89784
400,4242758,Lawrence County,38.71995,-87.72673,IL,US.IL.101,4242769.0,Lawrenceville,38.729209999999995,-87.68169,17101,Lawrenceville,38.729209999999995,-87.68169
401,4243719,Macon County,39.86,-88.9616,IL,US.IL.115,4236895.0,Decatur,39.840309999999995,-88.9548,17115,Decatur,39.840309999999995,-88.9548
402,4243727,Macoupin County,39.26102,-89.92443,IL,US.IL.117,4235211.0,Carlinville,39.27977,-89.88176999999999,17117,Carlinville,39.27977,-89.88176999999999
403,4243743,Madison County,38.82985,-89.90517,IL,US.IL.119,4237717.0,Edwardsville,38.811440000000005,-89.95316,17119,Edwardsville,38.811440000000005,-89.95316
404,4243907,Marion County,38.64959,-88.91897,IL,US.IL.121,4249286.0,Salem,38.62699,-88.94561999999999,17121,Salem,38.62699,-88.94561999999999
405,4244065,Massac County,37.21903,-88.70774,IL,US.IL.127,4244462.0,Metropolis,37.15117,-88.73200000000001,17127,Metropolis,37.15117,-88.73200000000001
406,4244752,Monroe County,38.27865,-90.17738,IL,US.IL.133,4252548.0,Waterloo,38.33589,-90.14983000000001,17133,Waterloo,38.33589,-90.14983000000001
407,4244772,Montgomery County,39.23104,-89.47887,IL,US.IL.135,4240782.0,Hillsboro,39.16128,-89.4954,17135,Hillsboro,39.16128,-89.4954
408,4244840,Morgan County,39.715559999999996,-90.2015,IL,US.IL.137,4241704.0,Jacksonville,39.733940000000004,-90.22901,17137,Jacksonville,39.733940000000004,-90.22901
409,4244913,Moultrie County,39.64148,-88.6193,IL,US.IL.139,4250862.0,Sullivan,39.59948,-88.60784,17139,Sullivan,39.59948,-88.60784
410,4246841,Perry County,38.08376,-89.36702,IL,US.IL.145,4246983.0,Pinckneyville,38.08033,-89.38203,17145,Pinckneyville,38.08033,-89.38203
411,4246953,Pike County,39.6225,-90.88629,IL,US.IL.149,4247060.0,Pittsfield,39.60783,-90.80513,17149,Pittsfield,39.60783,-90.80513
412,4247387,Pope County,37.41276,-88.56158,IL,US.IL.151,4239519.0,Golconda,37.36727,-88.48643,17151,Golconda,37.36727,-88.48643
413,4247655,Pulaski County,37.22291,-89.12657,IL,US.IL.153,4244928.0,Mound City,37.08533,-89.16257,17153,Mound City,37.08533,-89.16257
414,4247802,Randolph County,38.05212,-89.82531,IL,US.IL.157,4235724.0,Chester,37.91366,-89.82205,17157,Chester,37.91366,-89.82205
415,4248062,Richland County,38.71236,-88.0851,IL,US.IL.159,4246382.0,Olney,38.73088,-88.08532,17159,Olney,38.73088,-88.08532
416,4248751,Saint Clair County,38.47031,-89.92841,IL,US.IL.163,4233813.0,Belleville,38.52005,-89.98399,17163,Belleville,38.52005,-89.98399
417,4249341,Saline County,37.75318,-88.5408,IL,US.IL.165,4240284.0,Harrisburg,37.73838,-88.54061,17165,Harrisburg,37.73838,-88.54061
418,4249472,Sangamon County,39.75817,-89.6589,IL,US.IL.167,,,,,17167,Sangamon County,39.75817,-89.6589
419,4249615,Scott County,39.64414,-90.4747,IL,US.IL.171,4253268.0,Winchester,39.62977,-90.45624000000001,17171,Winchester,39.62977,-90.45624000000001
420,4249847,Shelby County,39.39116,-88.80554000000001,IL,US.IL.173,4249857.0,Shelbyville,39.40643,-88.79007,17173,Shelbyville,39.40643,-88.79007
421,4251707,Union County,37.47123,-89.25509,IL,US.IL.181,4241992.0,Jonesboro,37.45172,-89.26814,17181,Jonesboro,37.45172,-89.26814
422,4252248,Wabash County,38.44607,-87.84425,IL,US.IL.185,4244967.0,Mount Carmel,38.41088,-87.76142,17185,Mount Carmel,38.41088,-87.76142
423,4252486,Washington County,38.35217,-89.41045,IL,US.IL.189,4245376.0,Nashville,38.34366,-89.38064,17189,Nashville,38.34366,-89.38064
424,4252607,Wayne County,38.429559999999995,-88.42560999999999,IL,US.IL.191,4238081.0,Fairfield,38.37894,-88.35977,17191,Fairfield,38.37894,-88.35977
425,4252955,White County,38.08748,-88.17957,IL,US.IL.193,4235246.0,Carmi,38.09088,-88.15865,17193,Carmi,38.09088,-88.15865
426,4253173,Williamson County,37.73025,-88.92994,IL,US.IL.199,4243899.0,Marion,37.73061,-88.93313,17199,Marion,37.73061,-88.93313
427,4254165,Bartholomew County,39.20597,-85.8976,IN,US.IN.005,4256038.0,Columbus,39.201440000000005,-85.92138,18005,Columbus,39.201440000000005,-85.92138
428,4255024,Brown County,39.19621,-86.22737,IN,US.IN.013,4261983.0,Nashville,39.20727,-86.2511,18013,Nashville,39.20727,-86.2511
429,4255818,Clark County,38.47718,-85.70728000000001,IN,US.IN.019,4259671.0,Jeffersonville,38.277570000000004,-85.73718000000001,18019,Jeffersonville,38.277570000000004,-85.73718000000001
430,4255843,Clay County,39.39273,-87.11576,IN,US.IN.021,4254884.0,Brazil,39.52365,-87.12501999999999,18021,Brazil,39.52365,-87.12501999999999
431,4256259,Crawford County,38.29241,-86.45170999999999,IN,US.IN.025,4257173.0,English,38.3345,-86.46415,18025,English,38.3345,-86.46415
432,4256468,Daviess County,38.70241,-87.07207,IN,US.IN.027,4266586.0,Washington,38.65922,-87.17279,18027,Washington,38.65922,-87.17279
433,4256516,Decatur County,39.306999999999995,-85.50114,IN,US.IN.031,4258302.0,Greensburg,39.337270000000004,-85.48358,18031,Greensburg,39.337270000000004,-85.48358
434,4256524,Dearborn County,39.14519,-84.97326,IN,US.IN.029,4260223.0,Lawrenceburg,39.09089,-84.84995,18029,Lawrenceburg,39.09089,-84.84995
435,4256808,Dubois County,38.36428,-86.8798,IN,US.IN.037,4259640.0,Jasper,38.39144,-86.93111,18037,Jasper,38.39144,-86.93111
436,4257390,Fayette County,39.64006,-85.17873,IN,US.IN.041,4256085.0,Connersville,39.64116,-85.14107,18041,Connersville,39.64116,-85.14107
437,4257565,Floyd County,38.318909999999995,-85.90687,IN,US.IN.043,4262045.0,New Albany,38.28562,-85.82413000000001,18043,New Albany,38.28562,-85.82413000000001
438,4257700,Franklin County,39.41486,-85.06028,IN,US.IN.047,4254999.0,Brookville,39.42311,-85.01274000000001,18047,Brookville,39.42311,-85.01274000000001
439,4257948,Gibson County,38.31183,-87.58459,IN,US.IN.051,4263396.0,Princeton,38.35532,-87.56752,18051,Princeton,38.35532,-87.56752
440,4258280,Greene County,39.03633,-86.96205,IN,US.IN.055,4254671.0,Bloomfield,39.026990000000005,-86.93751,18055,Bloomfield,39.026990000000005,-86.93751
441,4258477,Hancock County,39.82355,-85.77324,IN,US.IN.059,4258285.0,Greenfield,39.78504,-85.76942,18059,Greenfield,39.78504,-85.76942
442,4258587,Harrison County,38.19512,-86.11131,IN,US.IN.061,4256184.0,Corydon,38.21201,-86.12191999999999,18061,Corydon,38.21201,-86.12191999999999
443,4258778,Hendricks County,39.76952,-86.50998,IN,US.IN.063,4256447.0,Danville,39.7606,-86.52639,18063,Danville,39.7606,-86.52639
444,4258792,Henry County,39.93104,-85.39644,IN,US.IN.065,4262072.0,New Castle,39.928940000000004,-85.37025,18065,New Castle,39.928940000000004,-85.37025
445,4259572,Jackson County,38.906420000000004,-86.03754,IN,US.IN.071,4255063.0,Brownstown,38.87894,-86.04191999999999,18071,Brownstown,38.87894,-86.04191999999999
446,4259654,Jefferson County,38.78582,-85.43857,IN,US.IN.077,4260853.0,Madison,38.735890000000005,-85.37996,18077,Madison,38.735890000000005,-85.37996
447,4259679,Jennings County,38.99693,-85.62805999999999,IN,US.IN.079,,,,,18079,Jennings County,38.99693,-85.62805999999999
448,4259727,Johnson County,39.48997,-86.10164,IN,US.IN.081,4828382.0,Franklin,39.48061,-86.05499,18081,Franklin,39.48061,-86.05499
449,4259986,Knox County,38.68909,-87.41801,IN,US.IN.083,4266307.0,Vincennes,38.67727,-87.52863,18083,Vincennes,38.67727,-87.52863
450,4260213,Lawrence County,38.841159999999995,-86.48345,IN,US.IN.093,4254282.0,Bedford,38.86116,-86.48721,18093,Bedford,38.86116,-86.48721
451,4260977,Marion County,39.78171,-86.13847,IN,US.IN.097,,,,,18097,Marion County,39.78171,-86.13847
452,4261020,Martin County,38.708009999999994,-86.80306999999999,IN,US.IN.101,4264771.0,Shoals,38.66644,-86.79111,18101,Shoals,38.66644,-86.79111
453,4261526,Monroe County,39.160920000000004,-86.52314,IN,US.IN.105,4254679.0,Bloomington,39.16533,-86.52639,18105,Bloomington,39.16533,-86.52639
454,4261598,Morgan County,39.48155,-86.44621,IN,US.IN.109,4261032.0,Martinsville,39.42783,-86.42833,18109,Martinsville,39.42783,-86.42833
455,4262462,Ohio County,38.9501,-84.96503,IN,US.IN.115,4263736.0,Rising Sun,38.9495,-84.85384,18115,Rising Sun,38.9495,-84.85384
456,4262595,Orange County,38.541779999999996,-86.49507,IN,US.IN.117,4262762.0,Paoli,38.55617,-86.46831999999999,18117,Paoli,38.55617,-86.46831999999999
457,4262691,Owen County,39.31281,-86.83765,IN,US.IN.119,4265147.0,Spencer,39.28671,-86.76250999999999,18119,Spencer,39.28671,-86.76250999999999
458,4262785,Parke County,39.77363,-87.20636,IN,US.IN.121,4263850.0,Rockville,39.76254,-87.22918,18121,Rockville,39.76254,-87.22918
459,4262934,Perry County,38.07965,-86.63803,IN,US.IN.123,4265717.0,Tell City,37.951440000000005,-86.76777,18123,Tell City,37.951440000000005,-86.76777
460,4263024,Pike County,38.39878,-87.23216,IN,US.IN.125,4262968.0,Petersburg,38.49199,-87.27861999999999,18125,Petersburg,38.49199,-87.27861999999999
461,4263298,Posey County,38.02189,-87.86847,IN,US.IN.129,4261837.0,Mount Vernon,37.93227,-87.89503,18129,Mount Vernon,37.93227,-87.89503
462,4263451,Putnam County,39.66626,-86.845,IN,US.IN.133,4258273.0,Greencastle,39.644490000000005,-86.86473000000001,18133,Greencastle,39.644490000000005,-86.86473000000001
463,4263732,Ripley County,39.10345,-85.26239,IN,US.IN.137,4266266.0,Versailles,39.071999999999996,-85.2519,18137,Versailles,39.071999999999996,-85.2519
464,4263953,Rush County,39.61995,-85.46576,IN,US.IN.139,4263965.0,Rushville,39.60921,-85.44636,18139,Rushville,39.60921,-85.44636
465,4264540,Scott County,38.68507,-85.74746999999999,IN,US.IN.143,4264555.0,Scottsburg,38.68561,-85.77025,18143,Scottsburg,38.68561,-85.77025
466,4264684,Shelby County,39.52369,-85.7917,IN,US.IN.145,4264688.0,Shelbyville,39.521440000000005,-85.77691999999999,18145,Shelbyville,39.521440000000005,-85.77691999999999
467,4265152,Spencer County,38.01406,-87.00771,IN,US.IN.147,4263856.0,Rockport,37.883109999999995,-87.04944,18147,Rockport,37.883109999999995,-87.04944
468,4265509,Sullivan County,39.08883,-87.41469000000001,IN,US.IN.153,4265507.0,Sullivan,39.09532,-87.40585,18153,Sullivan,39.09532,-87.40585
469,4265618,Switzerland County,38.826159999999994,-85.037,IN,US.IN.155,4266278.0,Vevay,38.747840000000004,-85.06716999999999,18155,Vevay,38.747840000000004,-85.06716999999999
470,4266110,Union County,39.62555,-84.92514,IN,US.IN.161,4260329.0,Liberty,39.6356,-84.93106999999999,18161,Liberty,39.6356,-84.93106999999999
471,4266235,Vanderburgh County,38.02514,-87.58578,IN,US.IN.163,4257227.0,Evansville,37.974759999999996,-87.55585,18163,Evansville,37.974759999999996,-87.55585
472,4266252,Vermillion County,39.8538,-87.46396999999999,IN,US.IN.165,4262177.0,Newport,39.8842,-87.40863,18165,Newport,39.8842,-87.40863
473,4266295,Vigo County,39.430640000000004,-87.38996,IN,US.IN.167,4265737.0,Terre Haute,39.4667,-87.41391,18167,Terre Haute,39.4667,-87.41391
474,4266579,Warrick County,38.09217,-87.27205,IN,US.IN.173,4254797.0,Boonville,38.049209999999995,-87.27417,18173,Boonville,38.049209999999995,-87.27417
475,4266588,Washington County,38.59998,-86.10531,IN,US.IN.175,4264334.0,Salem,38.60561,-86.10109,18175,Salem,38.60561,-86.10109
476,4266673,Wayne County,39.86442,-85.00988000000001,IN,US.IN.177,4263681.0,Richmond,39.82894,-84.89024,18177,Richmond,39.82894,-84.89024
477,4267492,Allen County,37.88573,-95.30139,KS,US.KS.001,4273441.0,Iola,37.924479999999996,-95.39998,20001,Iola,37.924479999999996,-95.39998
478,4267572,Anderson County,38.2142,-95.29333000000001,KS,US.KS.003,4271974.0,Garnett,38.28058,-95.24192,20003,Garnett,38.28058,-95.24192
479,4267734,Atchison County,39.53174,-95.31344,KS,US.KS.005,4267733.0,Atchison,39.56305,-95.12164,20005,Atchison,39.56305,-95.12164
480,4267902,Barber County,37.228840000000005,-98.68479,KS,US.KS.007,4275315.0,Medicine Lodge,37.28113,-98.58036,20007,Medicine Lodge,37.28113,-98.58036
481,4267938,Barton County,38.47896,-98.75646,KS,US.KS.009,4272340.0,Great Bend,38.36446,-98.76481,20009,Great Bend,38.36446,-98.76481
482,4268552,Bourbon County,37.85523,-94.8493,KS,US.KS.011,4271690.0,Fort Scott,37.83976,-94.7083,20011,Fort Scott,37.83976,-94.7083
483,4268687,Brown County,39.8265,-95.56421999999999,KS,US.KS.013,4272873.0,Hiawatha,39.8525,-95.53582,20013,Hiawatha,39.8525,-95.53582
484,4268899,Butler County,37.78127,-96.83906999999999,KS,US.KS.015,4270863.0,El Dorado,37.817240000000005,-96.86225,20015,El Dorado,37.817240000000005,-96.86225
485,4269424,Chase County,38.30205,-96.59393,KS,US.KS.017,4269988.0,Cottonwood Falls,38.372240000000005,-96.54278000000001,20017,Cottonwood Falls,38.372240000000005,-96.54278000000001
486,4269433,Chautauqua County,37.150059999999996,-96.24538000000001,KS,US.KS.019,4279149.0,Sedan,37.12672,-96.18694,20019,Sedan,37.12672,-96.18694
487,4269459,Cherokee County,37.169309999999996,-94.84626999999999,KS,US.KS.021,4269841.0,Columbus,37.16923,-94.84411999999999,20021,Columbus,37.16923,-94.84411999999999
488,4269620,Clark County,37.23552,-99.82030999999999,KS,US.KS.025,4267710.0,Ashland,37.18864,-99.76568,20025,Ashland,37.18864,-99.76568
489,4269648,Clay County,39.349709999999995,-97.16516999999999,KS,US.KS.027,4269642.0,Clay Center,39.376940000000005,-97.12474,20027,Clay Center,39.376940000000005,-97.12474
490,4269744,Cloud County,39.4803,-97.64928,KS,US.KS.029,4269872.0,Concordia,39.570840000000004,-97.66254,20029,Concordia,39.570840000000004,-97.66254
491,4269788,Coffey County,38.23684,-95.73411,KS,US.KS.031,4268854.0,Burlington,38.19447,-95.74276,20031,Burlington,38.19447,-95.74276
492,4269851,Comanche County,37.19128,-99.27186999999999,KS,US.KS.033,4269802.0,Coldwater,37.26891,-99.32678,20033,Coldwater,37.26891,-99.32678
493,4270053,Cowley County,37.23775,-96.83749,KS,US.KS.035,4281897.0,Winfield,37.23975,-96.99559,20035,Winfield,37.23975,-96.99559
494,4270088,Crawford County,37.50732,-94.85181,KS,US.KS.037,4272061.0,Girard,37.51116,-94.83802,20037,Girard,37.51116,-94.83802
495,4270394,Dickinson County,38.8665,-97.1527,KS,US.KS.041,4267354.0,Abilene,38.91722,-97.21391,20041,Abilene,38.91722,-97.21391
496,4270436,Doniphan County,39.78808,-95.14679,KS,US.KS.043,4280660.0,Troy,39.78305,-95.08997,20043,Troy,39.78305,-95.08997
497,4270450,Douglas County,38.88466,-95.29261,KS,US.KS.045,4274277.0,Lawrence,38.97167,-95.23525,20045,Lawrence,38.97167,-95.23525
498,4270841,Edwards County,37.88765,-99.31217,KS,US.KS.047,4273993.0,Kinsley,37.92307,-99.40984,20047,Kinsley,37.92307,-99.40984
499,4270898,Elk County,37.45369,-96.24409,KS,US.KS.049,4273226.0,Howard,37.47031,-96.26361,20049,Howard,37.47031,-96.26361
500,4270937,Ellis County,38.91475,-99.31723000000001,KS,US.KS.051,4272782.0,Hays,38.87918,-99.32677,20051,Hays,38.87918,-99.32677
501,4270946,Ellsworth County,38.69663,-98.20473,KS,US.KS.053,4270945.0,Ellsworth,38.73056,-98.22811,20053,Ellsworth,38.73056,-98.22811
502,4271650,Ford County,37.6917,-99.88794,KS,US.KS.057,5445298.0,Dodge City,37.7528,-100.01708,20057,Dodge City,37.7528,-100.01708
503,4271771,Franklin County,38.56452,-95.28595,KS,US.KS.059,4276816.0,Ottawa,38.61557,-95.26775,20059,Ottawa,38.61557,-95.26775
504,4272003,Geary County,39.002359999999996,-96.75254,KS,US.KS.061,4273680.0,Junction City,39.02861,-96.8314,20061,Junction City,39.02861,-96.8314
505,4272234,Graham County,39.34972,-99.88325,KS,US.KS.065,4272980.0,Hill City,39.36473,-99.84206,20065,Hill City,39.36473,-99.84206
506,4272434,Greenwood County,37.877790000000005,-96.23264,KS,US.KS.073,4271159.0,Eureka,37.82392,-96.28917,20073,Eureka,37.82392,-96.28917
507,4272662,Harper County,37.1916,-98.0755,KS,US.KS.077,4267605.0,Anthony,37.15336,-98.03116999999999,20077,Anthony,37.15336,-98.03116999999999
508,4272705,Harvey County,38.04322,-97.42727,KS,US.KS.079,4276248.0,Newton,38.04668,-97.34504,20079,Newton,38.04668,-97.34504
509,4273049,Hodgeman County,38.08748,-99.89794,KS,US.KS.083,4273616.0,Jetmore,38.08446,-99.89346,20083,Jetmore,38.08446,-99.89346
510,4273514,Jackson County,39.41682,-95.79366,KS,US.KS.085,4273096.0,Holton,39.465270000000004,-95.73637,20085,Holton,39.465270000000004,-95.73637
511,4273563,Jefferson County,39.23576,-95.38345,KS,US.KS.087,4276792.0,Oskaloosa,39.21528,-95.31275,20087,Oskaloosa,39.21528,-95.31275
512,4273605,Jewell County,39.784729999999996,-98.21834,KS,US.KS.089,4275004.0,Mankato,39.78723,-98.21005,20089,Mankato,39.78723,-98.21005
513,4273638,Johnson County,38.883759999999995,-94.82226,KS,US.KS.091,4276614.0,Olathe,38.8814,-94.81913,20091,Olathe,38.8814,-94.81913
514,4273980,Kingman County,37.55888,-98.13633,KS,US.KS.095,4273978.0,Kingman,37.64585,-98.11367,20095,Kingman,37.64585,-98.11367
515,4274001,Kiowa County,37.55826,-99.28605,KS,US.KS.097,4272411.0,Greensburg,37.6028,-99.29261,20097,Greensburg,37.6028,-99.29261
516,4274089,Labette County,37.19133,-95.29758000000001,KS,US.KS.099,4276800.0,Oswego,37.16757,-95.10996,20099,Oswego,37.16757,-95.10996
517,4274307,Leavenworth County,39.19932,-95.0379,KS,US.KS.103,4274305.0,Leavenworth,39.31111,-94.92246,20103,Leavenworth,39.31111,-94.92246
518,4274455,Lincoln County,39.04533,-98.2077,KS,US.KS.105,4274450.0,Lincoln,39.04084,-98.14477,20105,Lincoln,39.04084,-98.14477
519,4274536,Linn County,38.212270000000004,-94.84293000000001,KS,US.KS.107,4275784.0,Mound City,38.14281,-94.81357,20107,Mound City,38.14281,-94.81357
520,4274916,Lyon County,38.45619,-96.15264,KS,US.KS.111,4271086.0,Emporia,38.4039,-96.18166,20111,Emporia,38.4039,-96.18166
521,4275073,Marion County,38.35887,-97.09689,KS,US.KS.115,4275070.0,Marion,38.34835,-97.01725,20115,Marion,38.34835,-97.01725
522,4275111,Marshall County,39.78362,-96.52294,KS,US.KS.117,4275144.0,Marysville,39.84111,-96.64724,20117,Marysville,39.84111,-96.64724
523,4275266,McPherson County,38.39167,-97.64808000000001,KS,US.KS.113,4275261.0,McPherson,38.37084,-97.66421,20113,McPherson,38.37084,-97.66421
524,4275428,Miami County,38.56358,-94.83806,KS,US.KS.121,4276956.0,Paola,38.57224,-94.87913,20121,Paola,38.57224,-94.87913
525,4275635,Mitchell County,39.39327,-98.20936,KS,US.KS.123,4268119.0,Beloit,39.45612,-98.10616,20123,Beloit,39.45612,-98.10616
526,4275684,Montgomery County,37.19252,-95.74288,KS,US.KS.125,4273359.0,Independence,37.22424,-95.70831,20125,Independence,37.22424,-95.70831
527,4275742,Morris County,38.68743,-96.64985,KS,US.KS.127,4270001.0,Council Grove,38.661120000000004,-96.49195,20127,Council Grove,38.661120000000004,-96.49195
528,4276120,Nemaha County,39.78345,-96.0141,KS,US.KS.131,4279170.0,Seneca,39.83416,-96.06416999999999,20131,Seneca,39.83416,-96.06416999999999
529,4276136,Neosho County,37.55849,-95.30679,KS,US.KS.133,4271131.0,Erie,37.56811,-95.24331,20133,Erie,37.56811,-95.24331
530,4276164,Ness County,38.479420000000005,-99.91618000000001,KS,US.KS.135,4276166.0,Ness City,38.45279,-99.90651,20135,Ness City,38.45279,-99.90651
531,4276454,Norton County,39.78439,-99.90348,KS,US.KS.137,4276452.0,Norton,39.833890000000004,-99.89151,20137,Norton,39.833890000000004,-99.89151
532,4276754,Osage County,38.65233,-95.72695,KS,US.KS.139,4274906.0,Lyndon,38.610009999999996,-95.68443,20139,Lyndon,38.610009999999996,-95.68443
533,4276786,Osborne County,39.35033,-98.76799,KS,US.KS.141,4276781.0,Osborne,39.43914,-98.69624,20141,Osborne,39.43914,-98.69624
534,4276817,Ottawa County,39.132540000000006,-97.65021999999999,KS,US.KS.143,4275586.0,Minneapolis,39.12194,-97.7067,20143,Minneapolis,39.12194,-97.7067
535,4277045,Pawnee County,38.181329999999996,-99.23673000000001,KS,US.KS.145,4274249.0,Larned,38.18057,-99.09871,20145,Larned,38.18057,-99.09871
536,4277173,Phillips County,39.78458,-99.34702,KS,US.KS.147,4277177.0,Phillipsburg,39.75612,-99.32399000000001,20147,Phillipsburg,39.75612,-99.32399000000001
537,4277604,Pottawatomie County,39.37901,-96.34244,KS,US.KS.149,4281614.0,Westmoreland,39.39389,-96.41360999999999,20149,Westmoreland,39.39389,-96.41360999999999
538,4277733,Pratt County,37.64774,-98.7396,KS,US.KS.151,4277752.0,Pratt,37.64391,-98.73759,20151,Pratt,37.64391,-98.73759
539,4277972,Reno County,37.95295,-98.08601,KS,US.KS.155,4273299.0,Hutchinson,38.06084,-97.92976999999999,20155,Hutchinson,38.06084,-97.92976999999999
540,4277976,Republic County,39.8278,-97.65061999999999,KS,US.KS.157,4268091.0,Belleville,39.82445,-97.63254,20157,Belleville,39.82445,-97.63254
541,4277995,Rice County,38.34714,-98.20103,KS,US.KS.159,4274927.0,Lyons,38.345009999999995,-98.20173,20159,Lyons,38.345009999999995,-98.20173
542,4278061,Riley County,39.296459999999996,-96.73518,KS,US.KS.161,4274994.0,Manhattan,39.183609999999994,-96.57167,20161,Manhattan,39.183609999999994,-96.57167
543,4278304,Rooks County,39.350229999999996,-99.32505,KS,US.KS.163,4048488.0,Stockton,39.43807,-99.2651,20163,Stockton,39.43807,-99.2651
544,4278457,Rush County,38.52316,-99.30924,KS,US.KS.165,4274067.0,La Crosse,38.5314,-99.30872,20165,La Crosse,38.5314,-99.30872
545,4278472,Russell County,38.91478,-98.76235,KS,US.KS.167,4278471.0,Russell,38.895270000000004,-98.86103,20167,Russell,38.895270000000004,-98.86103
546,4278895,Saline County,38.783809999999995,-97.64993,KS,US.KS.169,4278890.0,Salina,38.84028,-97.61142,20169,Salina,38.84028,-97.61142
547,4279155,Sedgwick County,37.68476,-97.46096999999999,KS,US.KS.173,4281730.0,Wichita,37.692240000000005,-97.33754,20173,Wichita,37.692240000000005,-97.33754
548,4279253,Shawnee County,39.041509999999995,-95.75653,KS,US.KS.177,,,,,20177,Shawnee County,39.041509999999995,-95.75653
549,4279478,Smith County,39.78516,-98.78546999999999,KS,US.KS.183,4279474.0,Smith Center,39.77918,-98.78506999999999,20183,Smith Center,39.77918,-98.78506999999999
550,4279904,Stafford County,38.031,-98.71744,KS,US.KS.185,4278621.0,Saint John,38.00224,-98.76009,20185,Saint John,38.00224,-98.76009
551,4280143,Sumner County,37.23728,-97.47655,KS,US.KS.191,4281386.0,Wellington,37.2653,-97.37171,20191,Wellington,37.2653,-97.37171
552,4280609,Trego County,38.914320000000004,-99.87274000000001,KS,US.KS.195,4281083.0,WaKeeney,39.025009999999995,-99.87957,20195,WaKeeney,39.025009999999995,-99.87957
553,4281087,Wabaunsee County,38.95328,-96.20499000000001,KS,US.KS.197,4267513.0,Alma,39.01667,-96.28916,20197,Alma,39.01667,-96.28916
554,4281258,Washington County,39.7842,-97.08754,KS,US.KS.201,4281253.0,Washington,39.818059999999996,-97.05086,20201,Washington,39.818059999999996,-97.05086
555,4281852,Wilson County,37.55924,-95.74339,KS,US.KS.205,4271796.0,Fredonia,37.53394,-95.82665,20205,Fredonia,37.53394,-95.82665
556,4282006,Woodson County,37.88667,-95.74016999999999,KS,US.KS.207,4282061.0,Yates Center,37.88115,-95.73331999999999,20207,Yates Center,37.88115,-95.73331999999999
557,4282035,Wyandotte County,39.11465,-94.76448,KS,US.KS.209,4273837.0,Kansas City,39.11417,-94.62746,20209,Kansas City,39.11417,-94.62746
558,4282211,Adair County,37.10416,-85.28065,KY,US.KY.001,4288366.0,Columbia,37.10284,-85.30635,21001,Columbia,37.10284,-85.30635
559,4282393,Allen County,36.75132,-86.19041999999999,KY,US.KY.003,4307837.0,Scottsville,36.75338,-86.19054,21003,Scottsville,36.75338,-86.19054
560,4282511,Anderson County,38.00391,-84.99101,KY,US.KY.005,4297581.0,Lawrenceburg,38.0373,-84.89662,21005,Lawrenceburg,38.0373,-84.89662
561,4283067,Ballard County,37.05843,-88.99934,KY,US.KY.007,4313395.0,Wickliffe,36.96478,-89.08923,21007,Wickliffe,36.96478,-89.08923
562,4283268,Barren County,36.965579999999996,-85.93366,KY,US.KY.009,4292826.0,Glasgow,36.99588,-85.91192,21009,Glasgow,36.99588,-85.91192
563,4283333,Bath County,38.14497,-83.74266999999999,KY,US.KY.011,4303441.0,Owingsville,38.1448,-83.76408,21011,Owingsville,38.1448,-83.76408
564,4283814,Bell County,36.73065,-83.67409,KY,US.KY.013,4304396.0,Pineville,36.762029999999996,-83.69492,21013,Pineville,36.762029999999996,-83.69492
565,4285233,Bourbon County,38.20673,-84.21715,KY,US.KY.017,4303602.0,Paris,38.2098,-84.25299,21017,Paris,38.2098,-84.25299
566,4285302,Boyd County,38.35957,-82.68773,KY,US.KY.019,4287192.0,Catlettsburg,38.4048,-82.60044,21019,Catlettsburg,38.4048,-82.60044
567,4285317,Boyle County,37.62433,-84.86681,KY,US.KY.021,4289445.0,Danville,37.64563,-84.77216999999999,21021,Danville,37.64563,-84.77216999999999
568,4285325,Bracken County,38.68881,-84.09019,KY,US.KY.023,4285607.0,Brooksville,38.68257,-84.06576,21023,Brooksville,38.68257,-84.06576
569,4285423,Breathitt County,37.52162,-83.32409,KY,US.KY.025,4296081.0,Jackson,37.55315,-83.38351,21025,Jackson,37.55315,-83.38351
570,4285428,Breckinridge County,37.773270000000004,-86.42928,KY,US.KY.027,4294044.0,Hardinsburg,37.78006,-86.46053,21027,Hardinsburg,37.78006,-86.46053
571,4286176,Bullitt County,37.970079999999996,-85.69586,KY,US.KY.029,4308163.0,Shepherdsville,37.9884,-85.71579,21029,Shepherdsville,37.9884,-85.71579
572,4286382,Butler County,37.20728,-86.68176,KY,US.KY.031,4301349.0,Morgantown,37.2256,-86.6836,21031,Morgantown,37.2256,-86.6836
573,4286500,Caldwell County,37.14533,-87.86791,KY,US.KY.033,4305266.0,Princeton,37.10922,-87.88195999999999,21033,Princeton,37.10922,-87.88195999999999
574,4286549,Calloway County,36.6211,-88.2722,KY,US.KY.035,4302035.0,Murray,36.61033,-88.31475999999999,21035,Murray,36.61033,-88.31475999999999
575,4286705,Campbell County,38.94648,-84.3797,KY,US.KY.037,4302529.0,Newport,39.09145,-84.49578000000001,21037,Newport,39.09145,-84.49578000000001
576,4286990,Carlisle County,36.85322,-88.97106,KY,US.KY.039,4283138.0,Bardwell,36.87061,-89.00979,21039,Bardwell,36.87061,-89.00979
577,4287048,Carroll County,38.66786,-85.12359000000001,KY,US.KY.041,4287050.0,Carrollton,38.6809,-85.1794,21041,Carrollton,38.6809,-85.1794
578,4287080,Carter County,38.31817,-83.04954000000001,KY,US.KY.043,4293311.0,Grayson,38.33258,-82.9485,21043,Grayson,38.33258,-82.9485
579,4287126,Casey County,37.32228,-84.92837,KY,US.KY.045,4298003.0,Liberty,37.31841,-84.9394,21045,Liberty,37.31841,-84.9394
580,4287749,Christian County,36.89418,-87.49038,KY,US.KY.047,4295251.0,Hopkinsville,36.86561,-87.49117,21047,Hopkinsville,36.86561,-87.49117
581,4287837,Clark County,37.97085,-84.1474,KY,US.KY.049,4313697.0,Winchester,37.99008,-84.17965,21049,Winchester,37.99008,-84.17965
582,4287883,Clay County,37.15971,-83.71468,KY,US.KY.051,4299741.0,Manchester,37.1537,-83.76186,21051,Manchester,37.1537,-83.76186
583,4288063,Clinton County,36.72748,-85.13601,KY,US.KY.053,4282305.0,Albany,36.6909,-85.13468,21053,Albany,36.6909,-85.13468
584,4289074,Crittenden County,37.35272,-88.09722,KY,US.KY.055,4299842.0,Marion,37.33283,-88.08113,21055,Marion,37.33283,-88.08113
585,4289242,Cumberland County,36.78653,-85.38845,KY,US.KY.057,4286280.0,Burkesville,36.79034,-85.37052,21057,Burkesville,36.79034,-85.37052
586,4289518,Daviess County,37.731770000000004,-87.08723,KY,US.KY.059,4303436.0,Owensboro,37.77422,-87.11333,21059,Owensboro,37.77422,-87.11333
587,4290885,Edmonson County,37.20884,-86.23862,KY,US.KY.061,4285708.0,Brownsville,37.19255,-86.26775,21061,Brownsville,37.19255,-86.26775
588,4291095,Elliott County,38.11789,-83.09761999999999,KY,US.KY.063,4307616.0,Sandy Hook,38.08647,-83.12628000000001,21063,Sandy Hook,38.08647,-83.12628000000001
589,4291280,Estill County,37.692479999999996,-83.96433,KY,US.KY.065,4295954.0,Irvine,37.70064,-83.97381,21065,Irvine,37.70064,-83.97381
590,4291564,Fayette County,38.04233,-84.45873,KY,US.KY.067,4297983.0,Lexington,37.988690000000005,-84.47771999999999,21067,Lexington,37.988690000000005,-84.47771999999999
591,4291901,Fleming County,38.37011,-83.69665,KY,US.KY.069,4291905.0,Flemingsburg,38.4223,-83.73380999999999,21069,Flemingsburg,38.4223,-83.73380999999999
592,4291960,Floyd County,37.557109999999994,-82.7457,KY,US.KY.071,4305210.0,Prestonsburg,37.66565,-82.77155,21071,Prestonsburg,37.66565,-82.77155
593,4292202,Franklin County,38.23915,-84.87706999999999,KY,US.KY.073,,,,,21073,Franklin County,38.23915,-84.87706999999999
594,4292427,Fulton County,36.55408,-89.18760999999999,KY,US.KY.075,4294625.0,Hickman,36.57117,-89.18618000000001,21075,Hickman,36.57117,-89.18618000000001
595,4292492,Gallatin County,38.75687,-84.85931,KY,US.KY.077,4312734.0,Warsaw,38.7834,-84.90162,21077,Warsaw,38.7834,-84.90162
596,4292570,Garrard County,37.63958,-84.53763000000001,KY,US.KY.079,4297354.0,Lancaster,37.61952,-84.57799999999999,21079,Lancaster,37.61952,-84.57799999999999
597,4293148,Grant County,38.64881,-84.62461,KY,US.KY.081,4313572.0,Williamstown,38.63812,-84.5605,21081,Williamstown,38.63812,-84.5605
598,4293245,Graves County,36.72314,-88.65120999999999,KY,US.KY.083,4300105.0,Mayfield,36.74172,-88.63672,21083,Mayfield,36.74172,-88.63672
599,4293301,Grayson County,37.46082,-86.34388,KY,US.KY.085,4297882.0,Leitchfield,37.48005,-86.29386,21085,Leitchfield,37.48005,-86.29386
600,4293371,Green County,37.264109999999995,-85.55311,KY,US.KY.087,4293470.0,Greensburg,37.26089,-85.49885,21087,Greensburg,37.26089,-85.49885
601,4293471,Greenup County,38.54566,-82.92229,KY,US.KY.089,4293473.0,Greenup,38.57313,-82.83017,21089,Greenup,38.57313,-82.83017
602,4293950,Hancock County,37.84151,-86.77793,KY,US.KY.091,4294267.0,Hawesville,37.900059999999996,-86.75499,21091,Hawesville,37.900059999999996,-86.75499
603,4294031,Hardin County,37.69792,-85.96337,KY,US.KY.093,4290988.0,Elizabethtown,37.69395,-85.85913000000001,21093,Elizabethtown,37.69395,-85.85913000000001
604,4294084,Harlan County,36.856970000000004,-83.21795,KY,US.KY.095,4294072.0,Harlan,36.843140000000005,-83.32185,21095,Harlan,36.843140000000005,-83.32185
605,4294160,Harrison County,38.44181,-84.33139,KY,US.KY.097,4289323.0,Cynthiana,38.39035,-84.2941,21097,Cynthiana,38.39035,-84.2941
606,4294190,Hart County,37.299929999999996,-85.88471,KY,US.KY.099,4302012.0,Munfordville,37.27228,-85.89108,21099,Munfordville,37.27228,-85.89108
607,4294512,Henderson County,37.7959,-87.57316,KY,US.KY.101,4294494.0,Henderson,37.83615,-87.59000999999999,21101,Henderson,37.83615,-87.59000999999999
608,4294546,Henry County,38.44847,-85.11893,KY,US.KY.103,4302338.0,New Castle,38.4334,-85.16968,21103,New Castle,38.4334,-85.16968
609,4294628,Hickman County,36.67817,-88.97622,KY,US.KY.105,4288062.0,Clinton,36.66728,-88.9934,21105,Clinton,36.66728,-88.9934
610,4295247,Hopkins County,37.308820000000004,-87.54084,KY,US.KY.107,4299670.0,Madisonville,37.3281,-87.49889,21107,Madisonville,37.3281,-87.49889
611,4296106,Jackson County,37.419779999999996,-84.00577,KY,US.KY.109,4300339.0,McKee,37.43036,-83.99798,21109,McKee,37.43036,-83.99798
612,4296212,Jefferson County,38.18719,-85.65916,KY,US.KY.111,4299276.0,Louisville,38.25424,-85.75941,21111,Louisville,38.25424,-85.75941
613,4296292,Jessamine County,37.87203,-84.58093000000001,KY,US.KY.113,4302561.0,Nicholasville,37.88063,-84.573,21113,Nicholasville,37.88063,-84.573
614,4296508,Johnson County,37.84664,-82.83154,KY,US.KY.115,4303543.0,Paintsville,37.81454,-82.80711,21115,Paintsville,37.81454,-82.80711
615,4296902,Kenton County,38.93346,-84.53334,KY,US.KY.117,,,,,21117,Kenton County,38.93346,-84.53334
616,4297180,Knott County,37.35405,-82.95413,KY,US.KY.119,4294872.0,Hindman,37.33593,-82.98044,21119,Hindman,37.33593,-82.98044
617,4297187,Knox County,36.89067,-83.85404,KY,US.KY.121,4283128.0,Barbourville,36.866479999999996,-83.88880999999999,21121,Barbourville,36.866479999999996,-83.88880999999999
618,4297424,Larue County,37.5458,-85.69792,KY,US.KY.123,4294937.0,Hodgenville,37.57395,-85.73996,21123,Hodgenville,37.57395,-85.73996
619,4297480,Laurel County,37.11067,-84.1178,KY,US.KY.125,4298960.0,London,37.12898,-84.08326,21125,London,37.12898,-84.08326
620,4297576,Lawrence County,38.06788,-82.73475,KY,US.KY.127,4299275.0,Louisa,38.11425,-82.60321,21127,Louisa,38.11425,-82.60321
621,4297704,Lee County,37.5948,-83.71628,KY,US.KY.129,4283541.0,Beattyville,37.57175,-83.70685999999999,21129,Beattyville,37.57175,-83.70685999999999
622,4297902,Leslie County,37.09406,-83.38116,KY,US.KY.131,4295712.0,Hyden,37.16093,-83.37324,21131,Hyden,37.16093,-83.37324
623,4297909,Letcher County,37.121190000000006,-82.85528000000001,KY,US.KY.133,4313346.0,Whitesburg,37.11843,-82.82683,21133,Whitesburg,37.11843,-82.82683
624,4297955,Lewis County,38.53154,-83.37805,KY,US.KY.135,4311976.0,Vanceburg,38.59924,-83.3188,21135,Vanceburg,38.59924,-83.3188
625,4298293,Lincoln County,37.45535,-84.66081,KY,US.KY.137,4309487.0,Stanford,37.53119,-84.66189,21137,Stanford,37.53119,-84.66189
626,4298811,Livingston County,37.2097,-88.35381,KY,US.KY.139,4308835.0,Smithland,37.138940000000005,-88.40337,21139,Smithland,37.138940000000005,-88.40337
627,4298932,Logan County,36.8597,-86.87894,KY,US.KY.141,4307025.0,Russellville,36.84532,-86.88722,21141,Russellville,36.84532,-86.88722
628,4299595,Lyon County,37.01913,-88.08328,KY,US.KY.143,4290859.0,Eddyville,37.0945,-88.0803,21143,Eddyville,37.0945,-88.0803
629,4299665,Madison County,37.72018,-84.27799999999999,KY,US.KY.151,4305974.0,Richmond,37.747859999999996,-84.29465,21151,Richmond,37.747859999999996,-84.29465
630,4299695,Magoffin County,37.70647,-83.06491,KY,US.KY.153,4307447.0,Salyersville,37.752590000000005,-83.06878,21153,Salyersville,37.752590000000005,-83.06878
631,4299849,Marion County,37.55253,-85.26963,KY,US.KY.155,4297653.0,Lebanon,37.569790000000005,-85.25274,21155,Lebanon,37.569790000000005,-85.25274
632,4299896,Marshall County,36.88345,-88.32938,KY,US.KY.157,4283953.0,Benton,36.857279999999996,-88.35031,21157,Benton,36.857279999999996,-88.35031
633,4299939,Martin County,37.80158,-82.51329,KY,US.KY.159,4295878.0,Inez,37.866479999999996,-82.53876,21159,Inez,37.866479999999996,-82.53876
634,4300012,Mason County,38.59517,-83.82425,KY,US.KY.161,4300152.0,Maysville,38.64119,-83.74436999999999,21161,Maysville,38.64119,-83.74436999999999
635,4300244,McCracken County,37.05408,-88.71271999999999,KY,US.KY.145,4048662.0,Paducah,37.08339,-88.60005,21145,Paducah,37.08339,-88.60005
636,4300249,McCreary County,36.737140000000004,-84.48416999999999,KY,US.KY.147,4313358.0,Whitley City,36.72341,-84.47049,21147,Whitley City,36.72341,-84.47049
637,4300401,McLean County,37.52919,-87.26361,KY,US.KY.149,4286519.0,Calhoun,37.538940000000004,-87.25833,21149,Calhoun,37.538940000000004,-87.25833
638,4300426,Meade County,37.969840000000005,-86.21718,KY,US.KY.163,4285380.0,Brandenburg,37.99896,-86.16941,21163,Brandenburg,37.99896,-86.16941
639,4300562,Menifee County,37.94138,-83.59886999999999,KY,US.KY.165,4292308.0,Frenchburg,37.95092,-83.62575,21165,Frenchburg,37.95092,-83.62575
640,4300572,Mercer County,37.81103,-84.87444,KY,US.KY.167,4294180.0,Harrodsburg,37.7623,-84.84329,21167,Harrodsburg,37.7623,-84.84329
641,4300606,Metcalfe County,36.99054,-85.62925,KY,US.KY.169,4290886.0,Edmonton,36.980059999999995,-85.61219,21169,Edmonton,36.980059999999995,-85.61219
642,4301192,Monroe County,36.71218,-85.71651999999999,KY,US.KY.171,4311035.0,Tompkinsville,36.70228,-85.69164,21171,Tompkinsville,36.70228,-85.69164
643,4301216,Montgomery County,38.03353,-83.9131,KY,US.KY.173,4301683.0,Mount Sterling,38.056470000000004,-83.94326,21173,Mount Sterling,38.056470000000004,-83.94326
644,4301333,Morgan County,37.92228,-83.25889000000001,KY,US.KY.175,4313038.0,West Liberty,37.921479999999995,-83.25962,21175,West Liberty,37.921479999999995,-83.25962
645,4301955,Muhlenberg County,37.215790000000005,-87.14204000000001,KY,US.KY.177,4293477.0,Greenville,37.20115,-87.17889,21177,Greenville,37.20115,-87.17889
646,4302277,Nelson County,37.80513,-85.46599,KY,US.KY.179,4283133.0,Bardstown,37.80923,-85.4669,21179,Bardstown,37.80923,-85.4669
647,4302564,Nicholas County,38.3356,-84.01533,KY,US.KY.181,4286981.0,Carlisle,38.312020000000004,-84.02743000000001,21181,Carlisle,38.312020000000004,-84.02743000000001
648,4302977,Ohio County,37.478190000000005,-86.84889,KY,US.KY.183,4294195.0,Hartford,37.451159999999994,-86.90916,21183,Hartford,37.451159999999994,-86.90916
649,4303164,Oldham County,38.399440000000006,-85.44837,KY,US.KY.185,4297238.0,La Grange,38.40757,-85.37885,21185,La Grange,38.40757,-85.37885
650,4303402,Owen County,38.51964,-84.82811,KY,US.KY.187,4303439.0,Owenton,38.53672,-84.84338000000001,21187,Owenton,38.53672,-84.84338000000001
651,4303455,Owsley County,37.4192,-83.68311,KY,US.KY.189,4285190.0,Booneville,37.4762,-83.67491,21189,Booneville,37.4762,-83.67491
652,4303870,Pendleton County,38.69563,-84.36027,KY,US.KY.191,4291501.0,Falmouth,38.67674,-84.33021,21191,Falmouth,38.67674,-84.33021
653,4303951,Perry County,37.24429,-83.22148,KY,US.KY.193,4294349.0,Hazard,37.24954,-83.19323,21193,Hazard,37.24954,-83.19323
654,4304226,Pike County,37.46902,-82.39587,KY,US.KY.195,4304232.0,Pikeville,37.47927,-82.51876,21195,Pikeville,37.47927,-82.51876
655,4305121,Powell County,37.83115,-83.82377,KY,US.KY.197,4309498.0,Stanton,37.84564,-83.85825,21197,Stanton,37.84564,-83.85825
656,4305364,Pulaski County,37.10393,-84.57718,KY,US.KY.199,4308922.0,Somerset,37.09202,-84.60410999999999,21199,Somerset,37.09202,-84.60410999999999
657,4306340,Robertson County,38.51882,-84.05203,KY,US.KY.201,4301603.0,Mount Olivet,38.531459999999996,-84.03687,21201,Mount Olivet,38.531459999999996,-84.03687
658,4306470,Rockcastle County,37.36518,-84.31594,KY,US.KY.203,4301703.0,Mount Vernon,37.35286,-84.34049,21203,Mount Vernon,37.35286,-84.34049
659,4306996,Russell County,36.99103,-85.05869,KY,US.KY.207,4296173.0,Jamestown,36.984790000000004,-85.06300999999999,21207,Jamestown,36.984790000000004,-85.06300999999999
660,4307808,Scott County,38.29156,-84.58393000000001,KY,US.KY.209,4292686.0,Georgetown,38.2098,-84.55883,21209,Georgetown,38.2098,-84.55883
661,4308112,Shelby County,38.21544,-85.19476999999999,KY,US.KY.211,4308122.0,Shelbyville,38.21201,-85.22357,21211,Shelbyville,38.21201,-85.22357
662,4308447,Simpson County,36.74194,-86.58232,KY,US.KY.213,4292193.0,Franklin,36.72226,-86.57722,21213,Franklin,36.72226,-86.57722
663,4309179,Spencer County,38.032509999999995,-85.32785,KY,US.KY.215,4310638.0,Taylorsville,38.031729999999996,-85.34245,21215,Taylorsville,38.031729999999996,-85.34245
664,4310601,Taylor County,37.36646,-85.32784000000001,KY,US.KY.217,4286717.0,Campbellsville,37.3434,-85.34191,21217,Campbellsville,37.3434,-85.34191
665,4310988,Todd County,36.83556,-87.17915,KY,US.KY.219,4291079.0,Elkton,36.81004,-87.15417,21219,Elkton,36.81004,-87.15417
666,4311258,Trigg County,36.80632,-87.87337,KY,US.KY.221,4286479.0,Cadiz,36.86505,-87.8353,21221,Cadiz,36.86505,-87.8353
667,4311266,Trimble County,38.61303,-85.33757,KY,US.KY.223,4283606.0,Bedford,38.59256,-85.31773000000001,21223,Bedford,38.59256,-85.31773000000001
668,4311683,Union County,37.65845,-87.94538,KY,US.KY.225,4301345.0,Morganfield,37.68338,-87.91669,21225,Morganfield,37.68338,-87.91669
669,4312732,Warren County,36.99358,-86.4238,KY,US.KY.227,4285268.0,Bowling Green,36.990320000000004,-86.4436,21227,Bowling Green,36.990320000000004,-86.4436
670,4312745,Washington County,37.75338,-85.17475,KY,US.KY.229,4309329.0,Springfield,37.685340000000004,-85.22218000000001,21229,Springfield,37.685340000000004,-85.22218000000001
671,4312835,Wayne County,36.80127,-84.82863,KY,US.KY.231,4301224.0,Monticello,36.82979,-84.84911,21231,Monticello,36.82979,-84.84911
672,4312885,Webster County,37.51842,-87.68316,KY,US.KY.233,4289966.0,Dixon,37.51782,-87.69029,21233,Dixon,37.51782,-87.69029
673,4313367,Whitley County,36.758070000000004,-84.14518000000001,KY,US.KY.235,4313563.0,Williamsburg,36.74342,-84.15966,21235,Williamsburg,36.74342,-84.15966
674,4313865,Wolfe County,37.73932,-83.49318000000001,KY,US.KY.237,4286728.0,Campton,37.73425,-83.54741,21237,Campton,37.73425,-83.54741
675,4313946,Woodford County,38.042390000000005,-84.74359,KY,US.KY.239,4312057.0,Versailles,38.05258,-84.72995,21239,Versailles,38.05258,-84.72995
676,4314344,Acadia Parish,30.29053,-92.41198,LA,US.LA.001,4321310.0,Crowley,30.214090000000002,-92.37458000000001,22001,Crowley,30.214090000000002,-92.37458000000001
677,4314607,Allen Parish,30.65287,-92.82788000000001,LA,US.LA.003,4335887.0,Oberlin,30.6202,-92.76265,22003,Oberlin,30.6202,-92.76265
678,4315067,Ascension Parish,30.203540000000004,-90.91129000000001,LA,US.LA.005,4322811.0,Donaldsonville,30.10114,-90.99412,22005,Donaldsonville,30.10114,-90.99412
679,4315120,Assumption Parish,29.90077,-91.06259,LA,US.LA.007,4334696.0,Napoleonville,29.940479999999997,-91.02481999999999,22007,Napoleonville,29.940479999999997,-91.02481999999999
680,4315243,Avoyelles Parish,31.076240000000002,-92.00138000000001,LA,US.LA.009,4332604.0,Marksville,31.12797,-92.06624000000001,22009,Marksville,31.12797,-92.06624000000001
681,4316112,Beauregard Parish,30.64847,-93.34334,LA,US.LA.011,4321781.0,DeRidder,30.84631,-93.28905,22011,DeRidder,30.84631,-93.28905
682,4316721,Bienville Parish,32.34722,-93.05595,LA,US.LA.013,4314969.0,Arcadia,32.549040000000005,-92.92016,22013,Arcadia,32.549040000000005,-92.92016
683,4317649,Bossier Parish,32.67899,-93.605,LA,US.LA.015,4316471.0,Benton,32.69487,-93.74185,22015,Benton,32.69487,-93.74185
684,4318532,Caddo Parish,32.58017,-93.88235,LA,US.LA.017,4341513.0,Shreveport,32.52515,-93.75018,22017,Shreveport,32.52515,-93.75018
685,4318583,Calcasieu Parish,30.22922,-93.35795,LA,US.LA.019,4330236.0,Lake Charles,30.21309,-93.2044,22019,Lake Charles,30.21309,-93.2044
686,4318597,Caldwell Parish,32.09227,-92.11661,LA,US.LA.021,4320492.0,Columbia,32.10516,-92.07791,22021,Columbia,32.10516,-92.07791
687,4318690,Cameron Parish,29.846870000000003,-93.1989,LA,US.LA.023,4318695.0,Cameron,29.79772,-93.32515,22023,Cameron,29.79772,-93.32515
688,4319276,Catahoula Parish,31.66617,-91.84707,LA,US.LA.025,4327024.0,Harrisonburg,31.772109999999998,-91.82151999999999,22025,Harrisonburg,31.772109999999998,-91.82151999999999
689,4320117,Claiborne Parish,32.82269,-92.99573000000001,LA,US.LA.027,4327785.0,Homer,32.791920000000005,-93.05503,22027,Homer,32.791920000000005,-93.05503
690,4320594,Concordia Parish,31.445840000000004,-91.64005999999999,LA,US.LA.029,4344599.0,Vidalia,31.565440000000002,-91.42595,22029,Vidalia,31.565440000000002,-91.42595
691,4321759,De Soto Parish,32.05545,-93.73728,LA,US.LA.031,4332494.0,Mansfield,32.037659999999995,-93.70018,22031,Mansfield,32.037659999999995,-93.70018
692,4323288,East Baton Rouge Parish,30.538240000000002,-91.09562,LA,US.LA.033,,,,,22033,East Baton Rouge Parish,30.538240000000002,-91.09562
693,4323316,East Carroll Parish,32.73255,-91.23507,LA,US.LA.035,4330331.0,Lake Providence,32.804990000000004,-91.17098,22035,Lake Providence,32.804990000000004,-91.17098
694,4323332,East Feliciana Parish,30.84507,-91.04554,LA,US.LA.037,4320277.0,Clinton,30.865740000000002,-91.01566,22037,Clinton,30.865740000000002,-91.01566
695,4323933,Evangeline Parish,30.72894,-92.4059,LA,US.LA.039,4344651.0,Ville Platte,30.68797,-92.27152,22039,Ville Platte,30.68797,-92.27152
696,4325158,Franklin Parish,32.13322,-91.67376999999999,LA,US.LA.041,4346466.0,Winnsboro,32.16321,-91.72068,22041,Winnsboro,32.16321,-91.72068
697,4326254,Grant Parish,31.5997,-92.55951999999999,LA,US.LA.043,4320425.0,Colfax,31.519059999999996,-92.70682,22043,Colfax,31.519059999999996,-92.70682
698,4328254,Iberia Parish,29.51353,-91.83964,LA,US.LA.045,4334971.0,New Iberia,30.00354,-91.81873,22045,New Iberia,30.00354,-91.81873
699,4328261,Iberville Parish,30.2585,-91.34936,LA,US.LA.047,4337436.0,Plaquemine,30.29005,-91.23496999999999,22047,Plaquemine,30.29005,-91.23496999999999
700,4328854,Jackson Parish,32.30203,-92.55774,LA,US.LA.049,4329308.0,Jonesboro,32.24127,-92.71599,22049,Jonesboro,32.24127,-92.71599
